[
    {
        "code": "300347",
        "direction": "N",
        "id": "MTA_300347",
        "lat": 40.585898,
        "locationType": 0,
        "lon": -73.939036,
        "name": "NOSTRAND AV/SHORE PKWY",
        "routeIds": [
            "MTA NYCT_B44"
        ],
        "wheelchairBoarding": "UNKNOWN"
    },
    {
        "code": "300351",
        "direction": "S",
        "id": "MTA_300351",
        "lat": 40.585035,
        "locationType": 0,
        "lon": -73.931329,
        "name": "KNAPP ST/SHORE PKWY",
        "routeIds": [
            "MTA NYCT_B4",
            "MTA NYCT_B44",
            "MTA NYCT_B44+"
        ],
        "wheelchairBoarding": "UNKNOWN"
    },
    {
        "code": "302414",
        "direction": "W",
        "id": "MTA_302414",
        "lat": 40.680253,
        "locationType": 0,
        "lon": -73.946932,
        "name": "FULTON ST/NEW YORK AV",
        "routeIds": [
            "MTA NYCT_B25",
            "MTA NYCT_B44"
        ],
        "wheelchairBoarding": "UNKNOWN"
    },
    {
        "code": "302415",
        "direction": "W",
        "id": "MTA_302415",
        "lat": 40.680447,
        "locationType": 0,
        "lon": -73.949976,
        "name": "FULTON ST/NOSTRAND AV",
        "routeIds": [
            "MTA NYCT_B25",
            "MTA NYCT_B44"
        ],
        "wheelchairBoarding": "UNKNOWN"
    },
    {
        "code": "302463",
        "direction": "S",
        "id": "MTA_302463",
        "lat": 40.682207,
        "locationType": 0,
        "lon": -73.950024,
        "name": "NOSTRAND AV/HANCOCK ST",
        "routeIds": [
            "MTA NYCT_B44"
        ],
        "wheelchairBoarding": "UNKNOWN"
    },
    {
        "code": "302823",
        "direction": "N",
        "id": "MTA_302823",
        "lat": 40.589929,
        "locationType": 0,
        "lon": -73.939713,
        "name": "NOSTRAND AV/AVENUE Z",
        "routeIds": [
            "MTA NYCT_B36",
            "MTA NYCT_B44"
        ],
        "wheelchairBoarding": "UNKNOWN"
    },
    {
        "code": "302825",
        "direction": "N",
        "id": "MTA_302825",
        "lat": 40.594243,
        "locationType": 0,
        "lon": -73.940584,
        "name": "NOSTRAND AV/AVENUE X",
        "routeIds": [
            "MTA NYCT_B36",
            "MTA NYCT_B44",
            "MTA NYCT_B44+"
        ],
        "wheelchairBoarding": "UNKNOWN"
    },
    {
        "code": "302826",
        "direction": "N",
        "id": "MTA_302826",
        "lat": 40.595788,
        "locationType": 0,
        "lon": -73.940882,
        "name": "NOSTRAND AV/AVENUE W",
        "routeIds": [
            "MTA NYCT_B36",
            "MTA NYCT_B44"
        ],
        "wheelchairBoarding": "UNKNOWN"
    },
    {
        "code": "302827",
        "direction": "N",
        "id": "MTA_302827",
        "lat": 40.598171,
        "locationType": 0,
        "lon": -73.941333,
        "name": "NOSTRAND AV/AVENUE V",
        "routeIds": [
            "MTA NYCT_B36",
            "MTA NYCT_B44"
        ],
        "wheelchairBoarding": "UNKNOWN"
    },
    {
        "code": "302830",
        "direction": "S",
        "id": "MTA_302830",
        "lat": 40.597988,
        "locationType": 0,
        "lon": -73.941594,
        "name": "NOSTRAND AV/AVENUE V",
        "routeIds": [
            "MTA NYCT_B44"
        ],
        "wheelchairBoarding": "UNKNOWN"
    },
    {
        "code": "302831",
        "direction": "S",
        "id": "MTA_302831",
        "lat": 40.596019,
        "locationType": 0,
        "lon": -73.941155,
        "name": "NOSTRAND AV/AVENUE W",
        "routeIds": [
            "MTA NYCT_B36",
            "MTA NYCT_B44"
        ],
        "wheelchairBoarding": "UNKNOWN"
    },
    {
        "code": "302832",
        "direction": "S",
        "id": "MTA_302832",
        "lat": 40.593865,
        "locationType": 0,
        "lon": -73.940669,
        "name": "NOSTRAND AV/AVENUE X",
        "routeIds": [
            "MTA NYCT_B36",
            "MTA NYCT_B44",
            "MTA NYCT_B44+"
        ],
        "wheelchairBoarding": "UNKNOWN"
    },
    {
        "code": "302833",
        "direction": "S",
        "id": "MTA_302833",
        "lat": 40.591347,
        "locationType": 0,
        "lon": -73.940284,
        "name": "NOSTRAND AV/AVENUE Y",
        "routeIds": [
            "MTA NYCT_B36",
            "MTA NYCT_B44"
        ],
        "wheelchairBoarding": "UNKNOWN"
    },
    {
        "code": "302834",
        "direction": "S",
        "id": "MTA_302834",
        "lat": 40.589656,
        "locationType": 0,
        "lon": -73.939965,
        "name": "NOSTRAND AV/AVENUE Z",
        "routeIds": [
            "MTA NYCT_B36",
            "MTA NYCT_B44"
        ],
        "wheelchairBoarding": "UNKNOWN"
    },
    {
        "code": "303366",
        "direction": "N",
        "id": "MTA_303366",
        "lat": 40.603052,
        "locationType": 0,
        "lon": -73.942294,
        "name": "NOSTRAND AV/AVENUE T",
        "routeIds": [
            "MTA NYCT_B44"
        ],
        "wheelchairBoarding": "UNKNOWN"
    },
    {
        "code": "303367",
        "direction": "N",
        "id": "MTA_303367",
        "lat": 40.605421,
        "locationType": 0,
        "lon": -73.942735,
        "name": "NOSTRAND AV/AVENUE S",
        "routeIds": [
            "MTA NYCT_B44"
        ],
        "wheelchairBoarding": "UNKNOWN"
    },
    {
        "code": "303368",
        "direction": "N",
        "id": "MTA_303368",
        "lat": 40.607661,
        "locationType": 0,
        "lon": -73.943165,
        "name": "NOSTRAND AV/AVENUE R",
        "routeIds": [
            "MTA NYCT_B44"
        ],
        "wheelchairBoarding": "UNKNOWN"
    },
    {
        "code": "303369",
        "direction": "N",
        "id": "MTA_303369",
        "lat": 40.608984,
        "locationType": 0,
        "lon": -73.943416,
        "name": "NOSTRAND AV/GERRITSEN AV",
        "routeIds": [
            "MTA NYCT_B44"
        ],
        "wheelchairBoarding": "UNKNOWN"
    },
    {
        "code": "303370",
        "direction": "N",
        "id": "MTA_303370",
        "lat": 40.610123,
        "locationType": 0,
        "lon": -73.943561,
        "name": "NOSTRAND AV/QUENTIN RD",
        "routeIds": [
            "MTA NYCT_B44",
            "MTABC_BM4"
        ],
        "wheelchairBoarding": "UNKNOWN"
    },
    {
        "code": "303371",
        "direction": "N",
        "id": "MTA_303371",
        "lat": 40.613115,
        "locationType": 0,
        "lon": -73.944115,
        "name": "NOSTRAND AV/AVENUE P",
        "routeIds": [
            "MTA NYCT_B44",
            "MTABC_BM4"
        ],
        "wheelchairBoarding": "UNKNOWN"
    },
    {
        "code": "303372",
        "direction": "N",
        "id": "MTA_303372",
        "lat": 40.614446,
        "locationType": 0,
        "lon": -73.944373,
        "name": "NOSTRAND AV/MARINE PKWY",
        "routeIds": [
            "MTA NYCT_B44"
        ],
        "wheelchairBoarding": "UNKNOWN"
    },
    {
        "code": "303374",
        "direction": "N",
        "id": "MTA_303374",
        "lat": 40.617532,
        "locationType": 0,
        "lon": -73.94503,
        "name": "NOSTRAND AV/AVENUE N",
        "routeIds": [
            "MTA NYCT_B44"
        ],
        "wheelchairBoarding": "UNKNOWN"
    },
    {
        "code": "303375",
        "direction": "N",
        "id": "MTA_303375",
        "lat": 40.619912,
        "locationType": 0,
        "lon": -73.945478,
        "name": "NOSTRAND AV/AVENUE M",
        "routeIds": [
            "MTA NYCT_B44",
            "MTABC_BM4"
        ],
        "wheelchairBoarding": "UNKNOWN"
    },
    {
        "code": "303376",
        "direction": "N",
        "id": "MTA_303376",
        "lat": 40.62188,
        "locationType": 0,
        "lon": -73.945851,
        "name": "NOSTRAND AV/AVENUE L",
        "routeIds": [
            "MTA NYCT_B44",
            "MTA NYCT_B44+",
            "MTABC_BM4"
        ],
        "wheelchairBoarding": "UNKNOWN"
    },
    {
        "code": "303377",
        "direction": "N",
        "id": "MTA_303377",
        "lat": 40.624532,
        "locationType": 0,
        "lon": -73.946321,
        "name": "NOSTRAND AV/AVENUE K",
        "routeIds": [
            "MTA NYCT_B44"
        ],
        "wheelchairBoarding": "UNKNOWN"
    },
    {
        "code": "303378",
        "direction": "N",
        "id": "MTA_303378",
        "lat": 40.627115,
        "locationType": 0,
        "lon": -73.946852,
        "name": "NOSTRAND AV/AVENUE J",
        "routeIds": [
            "MTA NYCT_B44"
        ],
        "wheelchairBoarding": "UNKNOWN"
    },
    {
        "code": "303379",
        "direction": "N",
        "id": "MTA_303379",
        "lat": 40.629484,
        "locationType": 0,
        "lon": -73.947279,
        "name": "NOSTRAND AV/AVENUE I",
        "routeIds": [
            "MTA NYCT_B44"
        ],
        "wheelchairBoarding": "UNKNOWN"
    },
    {
        "code": "303380",
        "direction": "N",
        "id": "MTA_303380",
        "lat": 40.632352,
        "locationType": 0,
        "lon": -73.947522,
        "name": "NOSTRAND AV/FLATBUSH AV",
        "routeIds": [
            "MTA NYCT_B44"
        ],
        "wheelchairBoarding": "UNKNOWN"
    },
    {
        "code": "303381",
        "direction": "N",
        "id": "MTA_303381",
        "lat": 40.634315,
        "locationType": 0,
        "lon": -73.947718,
        "name": "NOSTRAND AV/GLENWOOD RD",
        "routeIds": [
            "MTA NYCT_B44"
        ],
        "wheelchairBoarding": "UNKNOWN"
    },
    {
        "code": "303382",
        "direction": "E",
        "id": "MTA_303382",
        "lat": 40.63623,
        "locationType": 0,
        "lon": -73.947573,
        "name": "FARRAGUT RD/NOSTRAND AV",
        "routeIds": [
            "MTA NYCT_B44"
        ],
        "wheelchairBoarding": "UNKNOWN"
    },
    {
        "code": "303383",
        "direction": "N",
        "id": "MTA_303383",
        "lat": 40.636839,
        "locationType": 0,
        "lon": -73.945097,
        "name": "NEW YORK AV/FARRAGUT RD",
        "routeIds": [
            "MTA NYCT_B44"
        ],
        "wheelchairBoarding": "UNKNOWN"
    },
    {
        "code": "303384",
        "direction": "N",
        "id": "MTA_303384",
        "lat": 40.63915,
        "locationType": 0,
        "lon": -73.945318,
        "name": "NEW YORK AV/FOSTER AV",
        "routeIds": [
            "MTA NYCT_B44"
        ],
        "wheelchairBoarding": "UNKNOWN"
    },
    {
        "code": "303385",
        "direction": "N",
        "id": "MTA_303385",
        "lat": 40.641022,
        "locationType": 0,
        "lon": -73.94553,
        "name": "NEW YORK AV/AVENUE D",
        "routeIds": [
            "MTA NYCT_B44",
            "MTA NYCT_B96"
        ],
        "wheelchairBoarding": "UNKNOWN"
    },
    {
        "code": "303386",
        "direction": "N",
        "id": "MTA_303386",
        "lat": 40.64377,
        "locationType": 0,
        "lon": -73.945819,
        "name": "NEW YORK AV/CLARENDON RD",
        "routeIds": [
            "MTA NYCT_B44"
        ],
        "wheelchairBoarding": "UNKNOWN"
    },
    {
        "code": "303387",
        "direction": "N",
        "id": "MTA_303387",
        "lat": 40.645642,
        "locationType": 0,
        "lon": -73.946019,
        "name": "NEW YORK AV/BEVERLY RD",
        "routeIds": [
            "MTA NYCT_B44",
            "MTA NYCT_B96"
        ],
        "wheelchairBoarding": "UNKNOWN"
    },
    {
        "code": "303388",
        "direction": "N",
        "id": "MTA_303388",
        "lat": 40.647319,
        "locationType": 0,
        "lon": -73.946205,
        "name": "NEW YORK AV/TILDEN AV",
        "routeIds": [
            "MTA NYCT_B44"
        ],
        "wheelchairBoarding": "UNKNOWN"
    },
    {
        "code": "303389",
        "direction": "N",
        "id": "MTA_303389",
        "lat": 40.64941,
        "locationType": 0,
        "lon": -73.946427,
        "name": "NEW YORK AV/SNYDER AV",
        "routeIds": [
            "MTA NYCT_B44"
        ],
        "wheelchairBoarding": "UNKNOWN"
    },
    {
        "code": "303390",
        "direction": "N",
        "id": "MTA_303390",
        "lat": 40.651269,
        "locationType": 0,
        "lon": -73.94662,
        "name": "NEW YORK AV/CHURCH AV",
        "routeIds": [
            "MTA NYCT_B44",
            "MTA NYCT_B96"
        ],
        "wheelchairBoarding": "UNKNOWN"
    },
    {
        "code": "303391",
        "direction": "N",
        "id": "MTA_303391",
        "lat": 40.653127,
        "locationType": 0,
        "lon": -73.946824,
        "name": "NEW YORK AV/LINDEN BLVD",
        "routeIds": [
            "MTA NYCT_B44"
        ],
        "wheelchairBoarding": "UNKNOWN"
    },
    {
        "code": "303392",
        "direction": "N",
        "id": "MTA_303392",
        "lat": 40.654648,
        "locationType": 0,
        "lon": -73.946956,
        "name": "NEW YORK AV/LENOX RD",
        "routeIds": [
            "MTA NYCT_B44"
        ],
        "wheelchairBoarding": "UNKNOWN"
    },
    {
        "code": "303393",
        "direction": "N",
        "id": "MTA_303393",
        "lat": 40.655908,
        "locationType": 0,
        "lon": -73.947114,
        "name": "NEW YORK AV/CLARKSON AV",
        "routeIds": [
            "MTA NYCT_B44"
        ],
        "wheelchairBoarding": "UNKNOWN"
    },
    {
        "code": "303394",
        "direction": "N",
        "id": "MTA_303394",
        "lat": 40.657582,
        "locationType": 0,
        "lon": -73.947307,
        "name": "NEW YORK AV/WINTHROP ST",
        "routeIds": [
            "MTA NYCT_B44",
            "MTA NYCT_B96"
        ],
        "wheelchairBoarding": "UNKNOWN"
    },
    {
        "code": "303395",
        "direction": "N",
        "id": "MTA_303395",
        "lat": 40.65918,
        "locationType": 0,
        "lon": -73.947475,
        "name": "NEW YORK AV/FENIMORE ST",
        "routeIds": [
            "MTA NYCT_B44"
        ],
        "wheelchairBoarding": "UNKNOWN"
    },
    {
        "code": "303396",
        "direction": "N",
        "id": "MTA_303396",
        "lat": 40.66022,
        "locationType": 0,
        "lon": -73.947586,
        "name": "NEW YORK AV/MIDWOOD ST",
        "routeIds": [
            "MTA NYCT_B44"
        ],
        "wheelchairBoarding": "UNKNOWN"
    },
    {
        "code": "303398",
        "direction": "N",
        "id": "MTA_303398",
        "lat": 40.663936,
        "locationType": 0,
        "lon": -73.947987,
        "name": "NEW YORK AV/EMPIRE BL",
        "routeIds": [
            "MTA NYCT_B44",
            "MTA NYCT_B96"
        ],
        "wheelchairBoarding": "UNKNOWN"
    },
    {
        "code": "303399",
        "direction": "N",
        "id": "MTA_303399",
        "lat": 40.665545,
        "locationType": 0,
        "lon": -73.948062,
        "name": "NEW YORK AV/MONTGOMERY ST",
        "routeIds": [
            "MTA NYCT_B44"
        ],
        "wheelchairBoarding": "UNKNOWN"
    },
    {
        "code": "303400",
        "direction": "N",
        "id": "MTA_303400",
        "lat": 40.667329,
        "locationType": 0,
        "lon": -73.947887,
        "name": "NEW YORK AV/CARROLL ST",
        "routeIds": [
            "MTA NYCT_B44",
            "MTA NYCT_B96"
        ],
        "wheelchairBoarding": "UNKNOWN"
    },
    {
        "code": "303401",
        "direction": "N",
        "id": "MTA_303401",
        "lat": 40.669055,
        "locationType": 0,
        "lon": -73.947727,
        "name": "NEW YORK AV/UNION ST",
        "routeIds": [
            "MTA NYCT_B44"
        ],
        "wheelchairBoarding": "UNKNOWN"
    },
    {
        "code": "303402",
        "direction": "N",
        "id": "MTA_303402",
        "lat": 40.670227,
        "locationType": 0,
        "lon": -73.947618,
        "name": "NEW YORK AV/EASTERN PKWY",
        "routeIds": [
            "MTA NYCT_B44"
        ],
        "wheelchairBoarding": "UNKNOWN"
    },
    {
        "code": "303403",
        "direction": "N",
        "id": "MTA_303403",
        "lat": 40.671322,
        "locationType": 0,
        "lon": -73.947513,
        "name": "NEW YORK AV/SAINT JOHNS PL",
        "routeIds": [
            "MTA NYCT_B44"
        ],
        "wheelchairBoarding": "UNKNOWN"
    },
    {
        "code": "303404",
        "direction": "N",
        "id": "MTA_303404",
        "lat": 40.672676,
        "locationType": 0,
        "lon": -73.947385,
        "name": "NEW YORK AV/STERLING PL",
        "routeIds": [
            "MTA NYCT_B44"
        ],
        "wheelchairBoarding": "UNKNOWN"
    },
    {
        "code": "303405",
        "direction": "N",
        "id": "MTA_303405",
        "lat": 40.674446,
        "locationType": 0,
        "lon": -73.947218,
        "name": "NEW YORK AV/PROSPECT PL",
        "routeIds": [
            "MTA NYCT_B44"
        ],
        "wheelchairBoarding": "UNKNOWN"
    },
    {
        "code": "303406",
        "direction": "N",
        "id": "MTA_303406",
        "lat": 40.675821,
        "locationType": 0,
        "lon": -73.947087,
        "name": "NEW YORK AV/BERGEN ST",
        "routeIds": [
            "MTA NYCT_B44"
        ],
        "wheelchairBoarding": "UNKNOWN"
    },
    {
        "code": "303407",
        "direction": "N",
        "id": "MTA_303407",
        "lat": 40.677803,
        "locationType": 0,
        "lon": -73.946906,
        "name": "NEW YORK AV/PACIFIC ST",
        "routeIds": [
            "MTA NYCT_B44"
        ],
        "wheelchairBoarding": "UNKNOWN"
    },
    {
        "code": "303408",
        "direction": "N",
        "id": "MTA_303408",
        "lat": 40.678703,
        "locationType": 0,
        "lon": -73.946818,
        "name": "NEW YORK AV/ATLANTIC AV",
        "routeIds": [
            "MTA NYCT_B44"
        ],
        "wheelchairBoarding": "UNKNOWN"
    },
    {
        "code": "303411",
        "direction": "N",
        "id": "MTA_303411",
        "lat": 40.681039,
        "locationType": 0,
        "lon": -73.953342,
        "name": "BEDFORD AV/FULTON ST",
        "routeIds": [
            "MTA NYCT_B44",
            "MTA NYCT_B44+"
        ],
        "wheelchairBoarding": "UNKNOWN"
    },
    {
        "code": "303412",
        "direction": "N",
        "id": "MTA_303412",
        "lat": 40.682452,
        "locationType": 0,
        "lon": -73.953626,
        "name": "BEDFORD AV/HANCOCK ST",
        "routeIds": [
            "MTA NYCT_B44"
        ],
        "wheelchairBoarding": "UNKNOWN"
    },
    {
        "code": "303413",
        "direction": "N",
        "id": "MTA_303413",
        "lat": 40.683473,
        "locationType": 0,
        "lon": -73.953835,
        "name": "BEDFORD AV/PUTNAM AV",
        "routeIds": [
            "MTA NYCT_B44"
        ],
        "wheelchairBoarding": "UNKNOWN"
    },
    {
        "code": "303416",
        "direction": "N",
        "id": "MTA_303416",
        "lat": 40.688305,
        "locationType": 0,
        "lon": -73.95479,
        "name": "BEDFORD AV/GREENE AV",
        "routeIds": [
            "MTA NYCT_B44"
        ],
        "wheelchairBoarding": "UNKNOWN"
    },
    {
        "code": "303417",
        "direction": "N",
        "id": "MTA_303417",
        "lat": 40.689351,
        "locationType": 0,
        "lon": -73.955002,
        "name": "BEDFORD AV/LAFAYETTE AV",
        "routeIds": [
            "MTA NYCT_B44",
            "MTA NYCT_B44+"
        ],
        "wheelchairBoarding": "UNKNOWN"
    },
    {
        "code": "303418",
        "direction": "N",
        "id": "MTA_303418",
        "lat": 40.691288,
        "locationType": 0,
        "lon": -73.95539,
        "name": "BEDFORD AV/DE KALB AV",
        "routeIds": [
            "MTA NYCT_B44"
        ],
        "wheelchairBoarding": "UNKNOWN"
    },
    {
        "code": "303419",
        "direction": "N",
        "id": "MTA_303419",
        "lat": 40.693372,
        "locationType": 0,
        "lon": -73.955811,
        "name": "BEDFORD AV/WILLOUGHBY AV",
        "routeIds": [
            "MTA NYCT_B44"
        ],
        "wheelchairBoarding": "UNKNOWN"
    },
    {
        "code": "303420",
        "direction": "N",
        "id": "MTA_303420",
        "lat": 40.694473,
        "locationType": 0,
        "lon": -73.95603,
        "name": "BEDFORD AV/MYRTLE AV",
        "routeIds": [
            "MTA NYCT_B44"
        ],
        "wheelchairBoarding": "UNKNOWN"
    },
    {
        "code": "303421",
        "direction": "N",
        "id": "MTA_303421",
        "lat": 40.69668,
        "locationType": 0,
        "lon": -73.956472,
        "name": "BEDFORD AV/PARK AV",
        "routeIds": [
            "MTA NYCT_B44"
        ],
        "wheelchairBoarding": "UNKNOWN"
    },
    {
        "code": "303422",
        "direction": "N",
        "id": "MTA_303422",
        "lat": 40.698884,
        "locationType": 0,
        "lon": -73.956915,
        "name": "BEDFORD AV/FLUSHING AV",
        "routeIds": [
            "MTA NYCT_B44",
            "MTA NYCT_B44+"
        ],
        "wheelchairBoarding": "UNKNOWN"
    },
    {
        "code": "303425",
        "direction": "NW",
        "id": "MTA_303425",
        "lat": 40.702845,
        "locationType": 0,
        "lon": -73.959584,
        "name": "BEDFORD AV/HEWES ST",
        "routeIds": [
            "MTA NYCT_B44",
            "MTA NYCT_B44+"
        ],
        "wheelchairBoarding": "UNKNOWN"
    },
    {
        "code": "303427",
        "direction": "NW",
        "id": "MTA_303427",
        "lat": 40.705825,
        "locationType": 0,
        "lon": -73.962904,
        "name": "BEDFORD AV/TAYLOR ST",
        "routeIds": [
            "MTA NYCT_B44",
            "MTA NYCT_B44+"
        ],
        "wheelchairBoarding": "UNKNOWN"
    },
    {
        "code": "303434",
        "direction": "N",
        "id": "MTA_303434",
        "lat": 40.587608,
        "locationType": 0,
        "lon": -73.939283,
        "name": "NOSTRAND AV/VOORHIES AV",
        "routeIds": [
            "MTA NYCT_B44"
        ],
        "wheelchairBoarding": "UNKNOWN"
    },
    {
        "code": "303440",
        "direction": "N",
        "id": "MTA_303440",
        "lat": 40.600949,
        "locationType": 0,
        "lon": -73.941896,
        "name": "NOSTRAND AV/AVENUE U",
        "routeIds": [
            "MTA NYCT_B44",
            "MTA NYCT_B44+"
        ],
        "wheelchairBoarding": "UNKNOWN"
    },
    {
        "code": "303441",
        "direction": "SE",
        "id": "MTA_303441",
        "lat": 40.699506,
        "locationType": 0,
        "lon": -73.953484,
        "name": "LEE AV/FLUSHING AV",
        "routeIds": [
            "MTA NYCT_B44",
            "MTA NYCT_B44+",
            "MTA NYCT_B98"
        ],
        "wheelchairBoarding": "UNKNOWN"
    },
    {
        "code": "303444",
        "direction": "S",
        "id": "MTA_303444",
        "lat": 40.694587,
        "locationType": 0,
        "lon": -73.952485,
        "name": "NOSTRAND AV/MYRTLE AV",
        "routeIds": [
            "MTA NYCT_B44",
            "MTA NYCT_B98"
        ],
        "wheelchairBoarding": "UNKNOWN"
    },
    {
        "code": "303445",
        "direction": "S",
        "id": "MTA_303445",
        "lat": 40.693268,
        "locationType": 0,
        "lon": -73.952203,
        "name": "NOSTRAND AV/WILLOUGHBY AV",
        "routeIds": [
            "MTA NYCT_B44"
        ],
        "wheelchairBoarding": "UNKNOWN"
    },
    {
        "code": "303446",
        "direction": "S",
        "id": "MTA_303446",
        "lat": 40.690754,
        "locationType": 0,
        "lon": -73.951722,
        "name": "NOSTRAND AV/KOSCIUSKO ST",
        "routeIds": [
            "MTA NYCT_B44",
            "MTA NYCT_B44+"
        ],
        "wheelchairBoarding": "UNKNOWN"
    },
    {
        "code": "303447",
        "direction": "S",
        "id": "MTA_303447",
        "lat": 40.689536,
        "locationType": 0,
        "lon": -73.951479,
        "name": "NOSTRAND AV/LAFAYETTE AV",
        "routeIds": [
            "MTA NYCT_B44",
            "MTA NYCT_B98"
        ],
        "wheelchairBoarding": "UNKNOWN"
    },
    {
        "code": "303448",
        "direction": "S",
        "id": "MTA_303448",
        "lat": 40.688059,
        "locationType": 0,
        "lon": -73.951192,
        "name": "NOSTRAND AV/GREENE AV",
        "routeIds": [
            "MTA NYCT_B44"
        ],
        "wheelchairBoarding": "UNKNOWN"
    },
    {
        "code": "303451",
        "direction": "S",
        "id": "MTA_303451",
        "lat": 40.683672,
        "locationType": 0,
        "lon": -73.950315,
        "name": "NOSTRAND AV/PUTNAM AV",
        "routeIds": [
            "MTA NYCT_B44"
        ],
        "wheelchairBoarding": "UNKNOWN"
    },
    {
        "code": "303456",
        "direction": "S",
        "id": "MTA_303456",
        "lat": 40.677335,
        "locationType": 0,
        "lon": -73.94988,
        "name": "NOSTRAND AV/PACIFIC ST",
        "routeIds": [
            "MTA NYCT_B44"
        ],
        "wheelchairBoarding": "UNKNOWN"
    },
    {
        "code": "303457",
        "direction": "S",
        "id": "MTA_303457",
        "lat": 40.675671,
        "locationType": 0,
        "lon": -73.950037,
        "name": "NOSTRAND AV/BERGEN ST",
        "routeIds": [
            "MTA NYCT_B44"
        ],
        "wheelchairBoarding": "UNKNOWN"
    },
    {
        "code": "303458",
        "direction": "S",
        "id": "MTA_303458",
        "lat": 40.674201,
        "locationType": 0,
        "lon": -73.950169,
        "name": "NOSTRAND AV/PROSPECT PL",
        "routeIds": [
            "MTA NYCT_B44"
        ],
        "wheelchairBoarding": "UNKNOWN"
    },
    {
        "code": "303459",
        "direction": "S",
        "id": "MTA_303459",
        "lat": 40.670871,
        "locationType": 0,
        "lon": -73.950508,
        "name": "NOSTRAND AV/SAINT JOHNS PL",
        "routeIds": [
            "MTA NYCT_B44",
            "MTA NYCT_B44+"
        ],
        "wheelchairBoarding": "UNKNOWN"
    },
    {
        "code": "303460",
        "direction": "S",
        "id": "MTA_303460",
        "lat": 40.669288,
        "locationType": 0,
        "lon": -73.950627,
        "name": "NOSTRAND AV/EASTERN PKWY",
        "routeIds": [
            "MTA NYCT_B44",
            "MTA NYCT_B96"
        ],
        "wheelchairBoarding": "UNKNOWN"
    },
    {
        "code": "303461",
        "direction": "S",
        "id": "MTA_303461",
        "lat": 40.666866,
        "locationType": 0,
        "lon": -73.950851,
        "name": "NOSTRAND AV/CARROLL ST",
        "routeIds": [
            "MTA NYCT_B44",
            "MTA NYCT_B96"
        ],
        "wheelchairBoarding": "UNKNOWN"
    },
    {
        "code": "303463",
        "direction": "S",
        "id": "MTA_303463",
        "lat": 40.663474,
        "locationType": 0,
        "lon": -73.951015,
        "name": "NOSTRAND AV/EMPIRE BLVD",
        "routeIds": [
            "MTA NYCT_B44",
            "MTA NYCT_B44+"
        ],
        "wheelchairBoarding": "UNKNOWN"
    },
    {
        "code": "303464",
        "direction": "S",
        "id": "MTA_303464",
        "lat": 40.661981,
        "locationType": 0,
        "lon": -73.950861,
        "name": "NOSTRAND AV/LEFFERTS AV",
        "routeIds": [
            "MTA NYCT_B44",
            "MTA NYCT_B96"
        ],
        "wheelchairBoarding": "UNKNOWN"
    },
    {
        "code": "303465",
        "direction": "S",
        "id": "MTA_303465",
        "lat": 40.66052,
        "locationType": 0,
        "lon": -73.9507,
        "name": "NOSTRAND AV/MAPLE ST",
        "routeIds": [
            "MTA NYCT_B44"
        ],
        "wheelchairBoarding": "UNKNOWN"
    },
    {
        "code": "303466",
        "direction": "S",
        "id": "MTA_303466",
        "lat": 40.659055,
        "locationType": 0,
        "lon": -73.950546,
        "name": "NOSTRAND AV/RUTLAND RD",
        "routeIds": [
            "MTA NYCT_B44"
        ],
        "wheelchairBoarding": "UNKNOWN"
    },
    {
        "code": "303467",
        "direction": "S",
        "id": "MTA_303467",
        "lat": 40.657496,
        "locationType": 0,
        "lon": -73.950378,
        "name": "NOSTRAND AV/HAWTHORNE ST",
        "routeIds": [
            "MTA NYCT_B44"
        ],
        "wheelchairBoarding": "UNKNOWN"
    },
    {
        "code": "303469",
        "direction": "S",
        "id": "MTA_303469",
        "lat": 40.655011,
        "locationType": 0,
        "lon": -73.950113,
        "name": "NOSTRAND AV/CLARKSON AV",
        "routeIds": [
            "MTA NYCT_B44",
            "MTA NYCT_B44+"
        ],
        "wheelchairBoarding": "UNKNOWN"
    },
    {
        "code": "303471",
        "direction": "S",
        "id": "MTA_303471",
        "lat": 40.652275,
        "locationType": 0,
        "lon": -73.949816,
        "name": "NOSTRAND AV/LINDEN BLVD",
        "routeIds": [
            "MTA NYCT_B44"
        ],
        "wheelchairBoarding": "UNKNOWN"
    },
    {
        "code": "303473",
        "direction": "S",
        "id": "MTA_303473",
        "lat": 40.648613,
        "locationType": 0,
        "lon": -73.949426,
        "name": "NOSTRAND AV/SNYDER AV",
        "routeIds": [
            "MTA NYCT_B44"
        ],
        "wheelchairBoarding": "UNKNOWN"
    },
    {
        "code": "303474",
        "direction": "S",
        "id": "MTA_303474",
        "lat": 40.64656,
        "locationType": 0,
        "lon": -73.949204,
        "name": "NOSTRAND AV/TILDEN AV",
        "routeIds": [
            "MTA NYCT_B44"
        ],
        "wheelchairBoarding": "UNKNOWN"
    },
    {
        "code": "303475",
        "direction": "S",
        "id": "MTA_303475",
        "lat": 40.644798,
        "locationType": 0,
        "lon": -73.949011,
        "name": "NOSTRAND AV/BEVERLY RD",
        "routeIds": [
            "MTA NYCT_B44",
            "MTA NYCT_B96"
        ],
        "wheelchairBoarding": "UNKNOWN"
    },
    {
        "code": "303476",
        "direction": "S",
        "id": "MTA_303476",
        "lat": 40.64283,
        "locationType": 0,
        "lon": -73.948804,
        "name": "NOSTRAND AV/CLARENDON RD",
        "routeIds": [
            "MTA NYCT_B44"
        ],
        "wheelchairBoarding": "UNKNOWN"
    },
    {
        "code": "303477",
        "direction": "S",
        "id": "MTA_303477",
        "lat": 40.640085,
        "locationType": 0,
        "lon": -73.948517,
        "name": "NOSTRAND AV/NEWKIRK AV",
        "routeIds": [
            "MTA NYCT_B8",
            "MTA NYCT_B44",
            "MTA NYCT_B44+",
            "MTA NYCT_B96"
        ],
        "wheelchairBoarding": "UNKNOWN"
    },
    {
        "code": "303479",
        "direction": "S",
        "id": "MTA_303479",
        "lat": 40.635929,
        "locationType": 0,
        "lon": -73.948063,
        "name": "NOSTRAND AV/FARRAGUT RD",
        "routeIds": [
            "MTA NYCT_B44"
        ],
        "wheelchairBoarding": "UNKNOWN"
    },
    {
        "code": "303480",
        "direction": "S",
        "id": "MTA_303480",
        "lat": 40.63409,
        "locationType": 0,
        "lon": -73.947873,
        "name": "NOSTRAND AV/GLENWOOD RD",
        "routeIds": [
            "MTA NYCT_B44"
        ],
        "wheelchairBoarding": "UNKNOWN"
    },
    {
        "code": "303482",
        "direction": "S",
        "id": "MTA_303482",
        "lat": 40.628817,
        "locationType": 0,
        "lon": -73.947348,
        "name": "NOSTRAND AV/AVENUE I",
        "routeIds": [
            "MTA NYCT_B44"
        ],
        "wheelchairBoarding": "UNKNOWN"
    },
    {
        "code": "303483",
        "direction": "S",
        "id": "MTA_303483",
        "lat": 40.626426,
        "locationType": 0,
        "lon": -73.94691,
        "name": "NOSTRAND AV/AVENUE J",
        "routeIds": [
            "MTA NYCT_B44"
        ],
        "wheelchairBoarding": "UNKNOWN"
    },
    {
        "code": "303484",
        "direction": "S",
        "id": "MTA_303484",
        "lat": 40.62425,
        "locationType": 0,
        "lon": -73.946447,
        "name": "NOSTRAND AV/AVENUE K",
        "routeIds": [
            "MTA NYCT_B44"
        ],
        "wheelchairBoarding": "UNKNOWN"
    },
    {
        "code": "303486",
        "direction": "S",
        "id": "MTA_303486",
        "lat": 40.619231,
        "locationType": 0,
        "lon": -73.945547,
        "name": "NOSTRAND AV/AVENUE M",
        "routeIds": [
            "MTA NYCT_B44",
            "MTABC_BM4"
        ],
        "wheelchairBoarding": "UNKNOWN"
    },
    {
        "code": "303487",
        "direction": "S",
        "id": "MTA_303487",
        "lat": 40.616887,
        "locationType": 0,
        "lon": -73.945103,
        "name": "NOSTRAND AV/AVENUE N",
        "routeIds": [
            "MTA NYCT_B44"
        ],
        "wheelchairBoarding": "UNKNOWN"
    },
    {
        "code": "303488",
        "direction": "S",
        "id": "MTA_303488",
        "lat": 40.616209,
        "locationType": 0,
        "lon": -73.944977,
        "name": "NOSTRAND AV/KINGS HWY",
        "routeIds": [
            "MTA NYCT_B44",
            "MTA NYCT_B44+",
            "MTABC_BM4"
        ],
        "wheelchairBoarding": "UNKNOWN"
    },
    {
        "code": "303490",
        "direction": "S",
        "id": "MTA_303490",
        "lat": 40.611636,
        "locationType": 0,
        "lon": -73.944109,
        "name": "NOSTRAND AV/AVENUE P",
        "routeIds": [
            "MTA NYCT_B44",
            "MTABC_BM4"
        ],
        "wheelchairBoarding": "UNKNOWN"
    },
    {
        "code": "303491",
        "direction": "S",
        "id": "MTA_303491",
        "lat": 40.609472,
        "locationType": 0,
        "lon": -73.9437,
        "name": "NOSTRAND AV/QUENTIN RD",
        "routeIds": [
            "MTA NYCT_B44"
        ],
        "wheelchairBoarding": "UNKNOWN"
    },
    {
        "code": "303492",
        "direction": "S",
        "id": "MTA_303492",
        "lat": 40.606969,
        "locationType": 0,
        "lon": -73.943227,
        "name": "NOSTRAND AV/AVENUE R",
        "routeIds": [
            "MTA NYCT_B44",
            "MTA NYCT_B44+"
        ],
        "wheelchairBoarding": "UNKNOWN"
    },
    {
        "code": "303493",
        "direction": "S",
        "id": "MTA_303493",
        "lat": 40.604746,
        "locationType": 0,
        "lon": -73.942804,
        "name": "NOSTRAND AV/AVENUE S",
        "routeIds": [
            "MTA NYCT_B44"
        ],
        "wheelchairBoarding": "UNKNOWN"
    },
    {
        "code": "303494",
        "direction": "S",
        "id": "MTA_303494",
        "lat": 40.60233,
        "locationType": 0,
        "lon": -73.942352,
        "name": "NOSTRAND AV/AVENUE T",
        "routeIds": [
            "MTA NYCT_B44"
        ],
        "wheelchairBoarding": "UNKNOWN"
    },
    {
        "code": "303495",
        "direction": "S",
        "id": "MTA_303495",
        "lat": 40.600537,
        "locationType": 0,
        "lon": -73.942008,
        "name": "NOSTRAND AV/AVENUE U",
        "routeIds": [
            "MTA NYCT_B44",
            "MTA NYCT_B44+"
        ],
        "wheelchairBoarding": "UNKNOWN"
    },
    {
        "code": "303502",
        "direction": "S",
        "id": "MTA_303502",
        "lat": 40.586988,
        "locationType": 0,
        "lon": -73.93946,
        "name": "NOSTRAND AV/VOORHIES AV",
        "routeIds": [
            "MTA NYCT_B44"
        ],
        "wheelchairBoarding": "UNKNOWN"
    },
    {
        "code": "303513",
        "direction": "SE",
        "id": "MTA_303513",
        "lat": 40.70338,
        "locationType": 0,
        "lon": -73.95742,
        "name": "LEE AV/HEWES ST",
        "routeIds": [
            "MTA NYCT_B44",
            "MTA NYCT_B44+"
        ],
        "wheelchairBoarding": "UNKNOWN"
    },
    {
        "code": "306624",
        "direction": "N",
        "id": "MTA_306624",
        "lat": 40.662064,
        "locationType": 0,
        "lon": -73.947783,
        "name": "NEW YORK AV/EAST NEW YORK AV",
        "routeIds": [
            "MTA NYCT_B44"
        ],
        "wheelchairBoarding": "UNKNOWN"
    },
    {
        "code": "306701",
        "direction": "W",
        "id": "MTA_306701",
        "lat": 40.584153,
        "locationType": 0,
        "lon": -73.934837,
        "name": "EMMONS AV/FORD ST",
        "routeIds": [
            "MTA NYCT_B4",
            "MTA NYCT_B44",
            "MTABC_BM3"
        ],
        "wheelchairBoarding": "UNKNOWN"
    },
    {
        "code": "306702",
        "direction": "W",
        "id": "MTA_306702",
        "lat": 40.584088,
        "locationType": 0,
        "lon": -73.936702,
        "name": "EMMONS AV/BROWN ST",
        "routeIds": [
            "MTA NYCT_B4",
            "MTA NYCT_B44"
        ],
        "wheelchairBoarding": "UNKNOWN"
    },
    {
        "code": "306898",
        "direction": "E",
        "id": "MTA_306898",
        "lat": 40.585419,
        "locationType": 0,
        "lon": -73.938723,
        "name": "SHORE PKWY/NOSTRAND AV",
        "routeIds": [
            "MTA NYCT_B4",
            "MTA NYCT_B44",
            "MTA NYCT_B44+"
        ],
        "wheelchairBoarding": "UNKNOWN"
    },
    {
        "code": "306899",
        "direction": "E",
        "id": "MTA_306899",
        "lat": 40.585697,
        "locationType": 0,
        "lon": -73.936898,
        "name": "SHORE PKWY/BROWN ST",
        "routeIds": [
            "MTA NYCT_B4",
            "MTA NYCT_B44"
        ],
        "wheelchairBoarding": "UNKNOWN"
    },
    {
        "code": "306906",
        "direction": "S",
        "id": "MTA_306906",
        "lat": 40.632685,
        "locationType": 0,
        "lon": -73.947721,
        "name": "NOSTRAND AV/FLATBUSH AV",
        "routeIds": [
            "MTA NYCT_B44",
            "MTA NYCT_B44+",
            "MTA NYCT_B96"
        ],
        "wheelchairBoarding": "UNKNOWN"
    },
    {
        "code": "307020",
        "direction": "W",
        "id": "MTA_307020",
        "lat": 40.584026,
        "locationType": 0,
        "lon": -73.93844,
        "name": "EMMONS AV/NOSTRAND AV",
        "routeIds": [
            "MTA NYCT_B4",
            "MTA NYCT_B44",
            "MTA NYCT_B44+",
            "MTABC_BM3"
        ],
        "wheelchairBoarding": "UNKNOWN"
    },
    {
        "code": "307045",
        "direction": "E",
        "id": "MTA_307045",
        "lat": 40.585581,
        "locationType": 0,
        "lon": -73.931926,
        "name": "SHORE PKWY/BRIGHAM ST",
        "routeIds": [
            "MTA NYCT_B4",
            "MTA NYCT_B44"
        ],
        "wheelchairBoarding": "UNKNOWN"
    },
    {
        "code": "307127",
        "direction": "N",
        "id": "MTA_307127",
        "lat": 40.615799,
        "locationType": 0,
        "lon": -73.944766,
        "name": "NOSTRAND AV/KINGS HWY",
        "routeIds": [
            "MTA NYCT_B44",
            "MTA NYCT_B44+",
            "MTABC_BM4"
        ],
        "wheelchairBoarding": "UNKNOWN"
    },
    {
        "code": "307669",
        "direction": "E",
        "id": "MTA_307669",
        "lat": 40.585988,
        "locationType": 0,
        "lon": -73.933881,
        "name": "SHORE PKWY/COYLE ST",
        "routeIds": [
            "MTA NYCT_B4",
            "MTA NYCT_B44"
        ],
        "wheelchairBoarding": "UNKNOWN"
    },
    {
        "code": "307737",
        "direction": "S",
        "id": "MTA_307737",
        "lat": 40.650362,
        "locationType": 0,
        "lon": -73.949609,
        "name": "NOSTRAND AV/CHURCH AV",
        "routeIds": [
            "MTA NYCT_B44",
            "MTA NYCT_B44+",
            "MTA NYCT_B96"
        ],
        "wheelchairBoarding": "UNKNOWN"
    },
    {
        "code": "307854",
        "direction": "W",
        "id": "MTA_307854",
        "lat": 40.584324,
        "locationType": 0,
        "lon": -73.932383,
        "name": "EMMONS AV/BRIGHAM ST",
        "routeIds": [
            "MTA NYCT_B4",
            "MTA NYCT_B44",
            "MTABC_BM3"
        ],
        "wheelchairBoarding": "UNKNOWN"
    },
    {
        "code": "307905",
        "direction": "S",
        "id": "MTA_307905",
        "lat": 40.685866,
        "locationType": 0,
        "lon": -73.950754,
        "name": "NOSTRAND AV/GATES AV",
        "routeIds": [
            "MTA NYCT_B44",
            "MTA NYCT_B44+"
        ],
        "wheelchairBoarding": "UNKNOWN"
    },
    {
        "code": "307915",
        "direction": "E",
        "id": "MTA_307915",
        "lat": 40.709278,
        "locationType": 0,
        "lon": -73.959521,
        "name": "WILLIAMSBURG BRIDGE PLAZA/LANE 4",
        "routeIds": [
            "MTA NYCT_B44",
            "MTA NYCT_B44+"
        ],
        "wheelchairBoarding": "UNKNOWN"
    },
    {
        "code": "308057",
        "direction": "S",
        "id": "MTA_308057",
        "lat": 40.621671,
        "locationType": 0,
        "lon": -73.946006,
        "name": "NOSTRAND AV/AVENUE L",
        "routeIds": [
            "MTA NYCT_B44",
            "MTA NYCT_B44+",
            "MTABC_BM4"
        ],
        "wheelchairBoarding": "UNKNOWN"
    },
    {
        "code": "308122",
        "direction": "N",
        "id": "MTA_308122",
        "lat": 40.592022,
        "locationType": 0,
        "lon": -73.940115,
        "name": "NOSTRAND AV/AVENUE Y",
        "routeIds": [
            "MTA NYCT_B36",
            "MTA NYCT_B44"
        ],
        "wheelchairBoarding": "UNKNOWN"
    },
    {
        "code": "308354",
        "direction": "S",
        "id": "MTA_308354",
        "lat": 40.696879,
        "locationType": 0,
        "lon": -73.952945,
        "name": "NOSTRAND AV/PARK AV",
        "routeIds": [
            "MTA NYCT_B44"
        ],
        "wheelchairBoarding": "UNKNOWN"
    },
    {
        "code": "308360",
        "direction": "S",
        "id": "MTA_308360",
        "lat": 40.638229,
        "locationType": 0,
        "lon": -73.948313,
        "name": "NOSTRAND AV/FOSTER AV",
        "routeIds": [
            "MTA NYCT_B44"
        ],
        "wheelchairBoarding": "UNKNOWN"
    },
    {
        "code": "308435",
        "direction": "S",
        "id": "MTA_308435",
        "lat": 40.67997,
        "locationType": 0,
        "lon": -73.949642,
        "name": "NOSTRAND AV/FULTON ST",
        "routeIds": [
            "MTA NYCT_B44",
            "MTA NYCT_B44+"
        ],
        "wheelchairBoarding": "UNKNOWN"
    },
    {
        "code": "308443",
        "direction": "S",
        "id": "MTA_308443",
        "lat": 40.665458,
        "locationType": 0,
        "lon": -73.950974,
        "name": "NOSTRAND AV/MONTGOMERY ST",
        "routeIds": [
            "MTA NYCT_B44"
        ],
        "wheelchairBoarding": "UNKNOWN"
    },
    {
        "code": "308451",
        "direction": "E",
        "id": "MTA_308451",
        "lat": 40.624282,
        "locationType": 0,
        "lon": -73.946696,
        "name": "AVENUE K/NOSTRAND AV",
        "routeIds": [
            "MTA NYCT_B44"
        ],
        "wheelchairBoarding": "UNKNOWN"
    },
    {
        "code": "308452",
        "direction": "NW",
        "id": "MTA_308452",
        "lat": 40.607102,
        "locationType": 0,
        "lon": -73.93959,
        "name": "STUART ST/FILLMORE AV",
        "routeIds": [
            "MTA NYCT_B31",
            "MTA NYCT_B41",
            "MTA NYCT_B44",
            "MTABC_B100"
        ],
        "wheelchairBoarding": "UNKNOWN"
    },
    {
        "code": "350218",
        "direction": "SE",
        "id": "MTA_350218",
        "lat": 40.706825,
        "locationType": 0,
        "lon": -73.961295,
        "name": "LEE AV/TAYLOR ST",
        "routeIds": [
            "MTA NYCT_B44",
            "MTA NYCT_B44+"
        ],
        "wheelchairBoarding": "UNKNOWN"
    },
    {
        "code": "801163",
        "direction": "N",
        "id": "MTA_801163",
        "lat": 40.685507,
        "locationType": 0,
        "lon": -73.954251,
        "name": "BEDFORD AV/GATES AV",
        "routeIds": [
            "MTA NYCT_B44",
            "MTA NYCT_B44+"
        ],
        "wheelchairBoarding": "UNKNOWN"
    },
    {
        "code": "901009",
        "direction": "W",
        "id": "MTA_901009",
        "lat": 40.584028,
        "locationType": 0,
        "lon": -73.938408,
        "name": "EMMONS AV/NOSTRAND AV",
        "routeIds": [
            "MTA NYCT_B44"
        ],
        "wheelchairBoarding": "UNKNOWN"
    },
    {
        "code": "901010",
        "direction": "E",
        "id": "MTA_901010",
        "lat": 40.70932,
        "locationType": 0,
        "lon": -73.959616,
        "name": "WILLIAMSBURG BRIDGE PLAZA/LANE 4",
        "routeIds": [
            "MTA NYCT_B44",
            "MTA NYCT_B44+"
        ],
        "wheelchairBoarding": "UNKNOWN"
    },
    {
        "code": "901011",
        "direction": "S",
        "id": "MTA_901011",
        "lat": 40.585064,
        "locationType": 0,
        "lon": -73.93134,
        "name": "KNAPP ST/SHORE PKWY",
        "routeIds": [
            "MTA NYCT_B44"
        ],
        "wheelchairBoarding": "UNKNOWN"
    }
]