[
    {
        "code": "201933",
        "direction": "NE",
        "id": "MTA_201933",
        "lat": 40.588544,
        "locationType": 0,
        "lon": -74.19586,
        "name": "VICTORY BLVD/FELDMEYERS LN",
        "routeIds": [
            "MTA NYCT_S62",
            "MTA NYCT_S92",
            "MTA NYCT_SIM32"
        ],
        "wheelchairBoarding": "UNKNOWN"
    },
    {
        "code": "201934",
        "direction": "NE",
        "id": "MTA_201934",
        "lat": 40.590881,
        "locationType": 0,
        "lon": -74.19196,
        "name": "VICTORY BLVD/ALBERTA AV",
        "routeIds": [
            "MTA NYCT_S62",
            "MTA NYCT_S92",
            "MTA NYCT_SIM32"
        ],
        "wheelchairBoarding": "UNKNOWN"
    },
    {
        "code": "201942",
        "direction": "NE",
        "id": "MTA_201942",
        "lat": 40.599621,
        "locationType": 0,
        "lon": -74.17837,
        "name": "VICTORY BLVD/TRAVIS AV",
        "routeIds": [
            "MTA NYCT_S62",
            "MTA NYCT_S92",
            "MTA NYCT_SIM32"
        ],
        "wheelchairBoarding": "UNKNOWN"
    },
    {
        "code": "201947",
        "direction": "E",
        "id": "MTA_201947",
        "lat": 40.60676,
        "locationType": 0,
        "lon": -74.165474,
        "name": "VICTORY BLVD/ARLENE ST",
        "routeIds": [
            "MTA NYCT_S62",
            "MTA NYCT_S92",
            "MTA NYCT_SIM32"
        ],
        "wheelchairBoarding": "UNKNOWN"
    },
    {
        "code": "201948",
        "direction": "E",
        "id": "MTA_201948",
        "lat": 40.607246,
        "locationType": 0,
        "lon": -74.161211,
        "name": "VICTORY BLVD/RICHMOND AV (FAR)",
        "routeIds": [
            "MTA NYCT_S62",
            "MTA NYCT_S92",
            "MTA NYCT_SIM32",
            "MTA NYCT_SIM33",
            "MTA NYCT_SIM33C"
        ],
        "wheelchairBoarding": "UNKNOWN"
    },
    {
        "code": "201950",
        "direction": "E",
        "id": "MTA_201950",
        "lat": 40.608078,
        "locationType": 0,
        "lon": -74.156841,
        "name": "VICTORY BLVD/MORANI ST",
        "routeIds": [
            "MTA NYCT_S62",
            "MTA NYCT_S92",
            "MTA NYCT_SIM32"
        ],
        "wheelchairBoarding": "UNKNOWN"
    },
    {
        "code": "201951",
        "direction": "E",
        "id": "MTA_201951",
        "lat": 40.608684,
        "locationType": 0,
        "lon": -74.15377,
        "name": "VICTORY BLVD/WILLOWBROOK PK",
        "routeIds": [
            "MTA NYCT_S62",
            "MTA NYCT_S92",
            "MTA NYCT_SIM32",
            "MTA NYCT_SIM33",
            "MTA NYCT_SIM33C"
        ],
        "wheelchairBoarding": "UNKNOWN"
    },
    {
        "code": "202039",
        "direction": "W",
        "id": "MTA_202039",
        "lat": 40.608055,
        "locationType": 0,
        "lon": -74.157781,
        "name": "VICTORY BLVD/MORANI ST",
        "routeIds": [
            "MTA NYCT_S62",
            "MTA NYCT_S92",
            "MTA NYCT_SIM32"
        ],
        "wheelchairBoarding": "UNKNOWN"
    },
    {
        "code": "202041",
        "direction": "W",
        "id": "MTA_202041",
        "lat": 40.607219,
        "locationType": 0,
        "lon": -74.162922,
        "name": "VICTORY BLVD/RICHMOND AV",
        "routeIds": [
            "MTA NYCT_S62",
            "MTA NYCT_S92",
            "MTA NYCT_SIM32"
        ],
        "wheelchairBoarding": "UNKNOWN"
    },
    {
        "code": "202042",
        "direction": "W",
        "id": "MTA_202042",
        "lat": 40.606704,
        "locationType": 0,
        "lon": -74.166281,
        "name": "VICTORY BLVD/ARLENE ST",
        "routeIds": [
            "MTA NYCT_S62",
            "MTA NYCT_S92",
            "MTA NYCT_SIM32"
        ],
        "wheelchairBoarding": "UNKNOWN"
    },
    {
        "code": "202043",
        "direction": "SW",
        "id": "MTA_202043",
        "lat": 40.605587,
        "locationType": 0,
        "lon": -74.169627,
        "name": "VICTORY BLVD/GRAHAM AV",
        "routeIds": [
            "MTA NYCT_S62",
            "MTA NYCT_S92",
            "MTA NYCT_SIM32"
        ],
        "wheelchairBoarding": "UNKNOWN"
    },
    {
        "code": "202047",
        "direction": "SW",
        "id": "MTA_202047",
        "lat": 40.599535,
        "locationType": 0,
        "lon": -74.178715,
        "name": "VICTORY BLVD/TRAVIS AV",
        "routeIds": [
            "MTA NYCT_S62",
            "MTA NYCT_S92",
            "MTA NYCT_SIM32"
        ],
        "wheelchairBoarding": "UNKNOWN"
    },
    {
        "code": "202051",
        "direction": "SW",
        "id": "MTA_202051",
        "lat": 40.595152,
        "locationType": 0,
        "lon": -74.184904,
        "name": "VICTORY BLVD/CANNON AV",
        "routeIds": [
            "MTA NYCT_S62",
            "MTA NYCT_S92",
            "MTA NYCT_SIM32"
        ],
        "wheelchairBoarding": "UNKNOWN"
    },
    {
        "code": "202055",
        "direction": "SW",
        "id": "MTA_202055",
        "lat": 40.590585,
        "locationType": 0,
        "lon": -74.192801,
        "name": "VICTORY BLVD/GLEN ST",
        "routeIds": [
            "MTA NYCT_S62",
            "MTA NYCT_S92",
            "MTA NYCT_SIM32"
        ],
        "wheelchairBoarding": "UNKNOWN"
    },
    {
        "code": "202056",
        "direction": "SW",
        "id": "MTA_202056",
        "lat": 40.588782,
        "locationType": 0,
        "lon": -74.19574,
        "name": "VICTORY BLVD/FELDMEYERS LN",
        "routeIds": [
            "MTA NYCT_S62",
            "MTA NYCT_S92",
            "MTA NYCT_SIM32"
        ],
        "wheelchairBoarding": "UNKNOWN"
    },
    {
        "code": "202589",
        "direction": "NE",
        "id": "MTA_202589",
        "lat": 40.604881,
        "locationType": 0,
        "lon": -74.170657,
        "name": "VICTORY BLVD/DINSMORE ST",
        "routeIds": [
            "MTA NYCT_S62",
            "MTA NYCT_S92",
            "MTA NYCT_SIM32"
        ],
        "wheelchairBoarding": "UNKNOWN"
    },
    {
        "code": "202669",
        "direction": "NE",
        "id": "MTA_202669",
        "lat": 40.594922,
        "locationType": 0,
        "lon": -74.185044,
        "name": "VICTORY BLVD/SIMMONS LN",
        "routeIds": [
            "MTA NYCT_S62",
            "MTA NYCT_S92",
            "MTA NYCT_SIM32"
        ],
        "wheelchairBoarding": "UNKNOWN"
    },
    {
        "code": "203067",
        "direction": "N",
        "id": "MTA_203067",
        "lat": 40.586534,
        "locationType": 0,
        "lon": -74.1988,
        "name": "VICTORY BLVD/CON EDISON BUS LOOP",
        "routeIds": [
            "MTA NYCT_S62",
            "MTA NYCT_S92",
            "MTA NYCT_SIM32"
        ],
        "wheelchairBoarding": "UNKNOWN"
    },
    {
        "code": "203175",
        "direction": "N",
        "id": "MTA_203175",
        "lat": 40.586613,
        "locationType": 0,
        "lon": -74.198763,
        "name": "VICTORY BLVD/CON EDISON BUS LOOP",
        "routeIds": [
            "MTA NYCT_S62",
            "MTA NYCT_S92",
            "MTA NYCT_SIM32"
        ],
        "wheelchairBoarding": "UNKNOWN"
    },
    {
        "code": "203200",
        "direction": "W",
        "id": "MTA_203200",
        "lat": 40.608776,
        "locationType": 0,
        "lon": -74.154099,
        "name": "VICTORY BLVD/WILLOWBROOK PARK",
        "routeIds": [
            "MTA NYCT_S62",
            "MTA NYCT_S92",
            "MTA NYCT_SIM32",
            "MTA NYCT_SIM33",
            "MTA NYCT_SIM33C"
        ],
        "wheelchairBoarding": "UNKNOWN"
    },
    {
        "code": "203559",
        "direction": "W",
        "id": "MTA_203559",
        "lat": 40.60856,
        "locationType": 0,
        "lon": -74.132465,
        "name": "NORTH GANNON AV/BRADLEY AV",
        "routeIds": [
            "MTA NYCT_S57",
            "MTA NYCT_S61",
            "MTA NYCT_S91",
            "MTA NYCT_SIM32",
            "MTA NYCT_SIM33",
            "MTA NYCT_SIM33C"
        ],
        "wheelchairBoarding": "UNKNOWN"
    },
    {
        "code": "203608",
        "direction": "E",
        "id": "MTA_203608",
        "lat": 40.607592,
        "locationType": 0,
        "lon": -74.147015,
        "name": "SOUTH GANNON AV/WILLOWBROOK RD",
        "routeIds": [
            "MTA NYCT_SIM32",
            "MTA NYCT_SIM33",
            "MTA NYCT_SIM33C"
        ],
        "wheelchairBoarding": "UNKNOWN"
    },
    {
        "code": "203611",
        "direction": "E",
        "id": "MTA_203611",
        "lat": 40.607694,
        "locationType": 0,
        "lon": -74.131704,
        "name": "SOUTH GANNON AV/BRADLEY AV",
        "routeIds": [
            "MTA NYCT_SIM31",
            "MTA NYCT_SIM32",
            "MTA NYCT_SIM33",
            "MTA NYCT_SIM33C"
        ],
        "wheelchairBoarding": "UNKNOWN"
    },
    {
        "code": "203612",
        "direction": "E",
        "id": "MTA_203612",
        "lat": 40.608165,
        "locationType": 0,
        "lon": -74.126855,
        "name": "SOUTH GANNON AV/GANSEVOORT BLVD",
        "routeIds": [
            "MTA NYCT_SIM31",
            "MTA NYCT_SIM32",
            "MTA NYCT_SIM33",
            "MTA NYCT_SIM33C"
        ],
        "wheelchairBoarding": "UNKNOWN"
    },
    {
        "code": "203613",
        "direction": "E",
        "id": "MTA_203613",
        "lat": 40.608816,
        "locationType": 0,
        "lon": -74.120622,
        "name": "SCHMIDTS LN/MANOR RD",
        "routeIds": [
            "MTA NYCT_SIM31",
            "MTA NYCT_SIM32",
            "MTA NYCT_SIM33",
            "MTA NYCT_SIM33C"
        ],
        "wheelchairBoarding": "UNKNOWN"
    },
    {
        "code": "203614",
        "direction": "E",
        "id": "MTA_203614",
        "lat": 40.609304,
        "locationType": 0,
        "lon": -74.116692,
        "name": "SCHMIDTS LN/SLOSSON AV",
        "routeIds": [
            "MTA NYCT_SIM31",
            "MTA NYCT_SIM32",
            "MTA NYCT_SIM33",
            "MTA NYCT_SIM33C"
        ],
        "wheelchairBoarding": "UNKNOWN"
    },
    {
        "code": "203765",
        "direction": "W",
        "id": "MTA_203765",
        "lat": 40.611366,
        "locationType": 0,
        "lon": -74.117159,
        "name": "REON AV/HENNING ST",
        "routeIds": [
            "MTA NYCT_SIM31",
            "MTA NYCT_SIM32",
            "MTA NYCT_SIM33",
            "MTA NYCT_SIM33C"
        ],
        "wheelchairBoarding": "UNKNOWN"
    },
    {
        "code": "203766",
        "direction": "W",
        "id": "MTA_203766",
        "lat": 40.610122,
        "locationType": 0,
        "lon": -74.121842,
        "name": "NORTH GANNON AV/MANOR RD",
        "routeIds": [
            "MTA NYCT_SIM31",
            "MTA NYCT_SIM32",
            "MTA NYCT_SIM33",
            "MTA NYCT_SIM33C"
        ],
        "wheelchairBoarding": "UNKNOWN"
    },
    {
        "code": "203767",
        "direction": "W",
        "id": "MTA_203767",
        "lat": 40.608971,
        "locationType": 0,
        "lon": -74.127667,
        "name": "NORTH GANNON AV/GANSEVOORT BLVD",
        "routeIds": [
            "MTA NYCT_SIM31",
            "MTA NYCT_SIM32",
            "MTA NYCT_SIM33",
            "MTA NYCT_SIM33C"
        ],
        "wheelchairBoarding": "UNKNOWN"
    },
    {
        "code": "203770",
        "direction": "W",
        "id": "MTA_203770",
        "lat": 40.608569,
        "locationType": 0,
        "lon": -74.147046,
        "name": "NORTH GANNON AV/WILLOWBROOK RD",
        "routeIds": [
            "MTA NYCT_SIM32",
            "MTA NYCT_SIM33",
            "MTA NYCT_SIM33C"
        ],
        "wheelchairBoarding": "UNKNOWN"
    },
    {
        "code": "400070",
        "direction": "NE",
        "id": "MTA_400070",
        "lat": 40.708007,
        "locationType": 0,
        "lon": -74.012714,
        "name": "TRINITY PL/RECTOR ST",
        "routeIds": [
            "MTABC_BM1",
            "MTABC_BM2",
            "MTABC_BM3",
            "MTABC_BM4",
            "MTA NYCT_M55",
            "MTA NYCT_SIM1",
            "MTA NYCT_SIM1C",
            "MTA NYCT_SIM2",
            "MTA NYCT_SIM3C",
            "MTA NYCT_SIM4",
            "MTA NYCT_SIM4C",
            "MTA NYCT_SIM4X",
            "MTA NYCT_SIM15",
            "MTA NYCT_SIM32",
            "MTA NYCT_SIM33C",
            "MTA NYCT_SIM34"
        ],
        "wheelchairBoarding": "UNKNOWN"
    },
    {
        "code": "404220",
        "direction": "SW",
        "id": "MTA_404220",
        "lat": 40.711545,
        "locationType": 0,
        "lon": -74.008596,
        "name": "BROADWAY/VESEY ST",
        "routeIds": [
            "MTABC_BXM18",
            "MTA NYCT_SIM2",
            "MTA NYCT_SIM32",
            "MTA NYCT_SIM34"
        ],
        "wheelchairBoarding": "UNKNOWN"
    },
    {
        "code": "404222",
        "direction": "SW",
        "id": "MTA_404222",
        "lat": 40.706587,
        "locationType": 0,
        "lon": -74.012746,
        "name": "BROADWAY/EXCHANGE ALLEY",
        "routeIds": [
            "MTA NYCT_SIM2",
            "MTA NYCT_SIM32",
            "MTA NYCT_SIM34"
        ],
        "wheelchairBoarding": "UNKNOWN"
    },
    {
        "code": "404242",
        "direction": "SE",
        "id": "MTA_404242",
        "lat": 40.716917,
        "locationType": 0,
        "lon": -74.006104,
        "name": "WORTH ST/CHURCH ST",
        "routeIds": [
            "MTA NYCT_SIM32"
        ],
        "wheelchairBoarding": "UNKNOWN"
    },
    {
        "code": "404891",
        "direction": "NE",
        "id": "MTA_404891",
        "lat": 40.715045,
        "locationType": 0,
        "lon": -74.007712,
        "name": "CHURCH ST/CHAMBERS ST",
        "routeIds": [
            "MTA NYCT_SIM1",
            "MTA NYCT_SIM1C",
            "MTA NYCT_SIM2",
            "MTA NYCT_SIM4",
            "MTA NYCT_SIM4C",
            "MTA NYCT_SIM4X",
            "MTA NYCT_SIM32",
            "MTA NYCT_SIM34",
            "MTA NYCT_X27",
            "MTA NYCT_X28"
        ],
        "wheelchairBoarding": "UNKNOWN"
    },
    {
        "code": "404934",
        "direction": "SW",
        "id": "MTA_404934",
        "lat": 40.70928,
        "locationType": 0,
        "lon": -74.010536,
        "name": "BROADWAY/LIBERTY ST",
        "routeIds": [
            "MTA NYCT_SIM32"
        ],
        "wheelchairBoarding": "UNKNOWN"
    },
    {
        "code": "404960",
        "direction": "W",
        "id": "MTA_404960",
        "lat": 40.705004,
        "locationType": 0,
        "lon": -74.015762,
        "name": "BATTERY PL/WASHINGTON ST",
        "routeIds": [
            "MTA NYCT_SIM32",
            "MTA NYCT_SIM34"
        ],
        "wheelchairBoarding": "UNKNOWN"
    },
    {
        "code": "405024",
        "direction": "NE",
        "id": "MTA_405024",
        "lat": 40.716678,
        "locationType": 0,
        "lon": -74.006421,
        "name": "CHURCH ST/WORTH ST",
        "routeIds": [
            "MTABC_BXM18",
            "MTA NYCT_M55",
            "MTA NYCT_SIM1",
            "MTA NYCT_SIM1C",
            "MTA NYCT_SIM2",
            "MTA NYCT_SIM3C",
            "MTA NYCT_SIM4",
            "MTA NYCT_SIM4C",
            "MTA NYCT_SIM4X",
            "MTA NYCT_SIM32",
            "MTA NYCT_SIM33C",
            "MTA NYCT_SIM34"
        ],
        "wheelchairBoarding": "UNKNOWN"
    },
    {
        "code": "450402",
        "direction": "NE",
        "id": "MTA_450402",
        "lat": 40.711727,
        "locationType": 0,
        "lon": -74.010261,
        "name": "CHURCH ST/FULTON ST",
        "routeIds": [
            "MTA NYCT_SIM1",
            "MTA NYCT_SIM1C",
            "MTA NYCT_SIM2",
            "MTA NYCT_SIM3C",
            "MTA NYCT_SIM4",
            "MTA NYCT_SIM4C",
            "MTA NYCT_SIM4X",
            "MTA NYCT_SIM15",
            "MTA NYCT_SIM32",
            "MTA NYCT_SIM33C",
            "MTA NYCT_SIM34",
            "MTA NYCT_X27",
            "MTA NYCT_X28"
        ],
        "wheelchairBoarding": "UNKNOWN"
    },
    {
        "code": "905194",
        "direction": "E",
        "id": "MTA_905194",
        "lat": 40.70477,
        "locationType": 0,
        "lon": -74.015508,
        "name": "BATTERY PL/WASHINGTON ST",
        "routeIds": [
            "MTA NYCT_SIM2",
            "MTA NYCT_SIM4X",
            "MTA NYCT_SIM15",
            "MTA NYCT_SIM32",
            "MTA NYCT_SIM34"
        ],
        "wheelchairBoarding": "UNKNOWN"
    },
    {
        "code": "905221",
        "direction": "W",
        "id": "MTA_905221",
        "lat": 40.608016,
        "locationType": 0,
        "lon": -74.143009,
        "name": "NORTH GANNON AV/WOODWARD AV",
        "routeIds": [
            "MTA NYCT_SIM32",
            "MTA NYCT_SIM33",
            "MTA NYCT_SIM33C"
        ],
        "wheelchairBoarding": "UNKNOWN"
    },
    {
        "code": "905222",
        "direction": "E",
        "id": "MTA_905222",
        "lat": 40.60737,
        "locationType": 0,
        "lon": -74.138874,
        "name": "SOUTH GANNON AV/ARDMORE AV",
        "routeIds": [
            "MTA NYCT_SIM32",
            "MTA NYCT_SIM33",
            "MTA NYCT_SIM33C"
        ],
        "wheelchairBoarding": "UNKNOWN"
    }
]