[
    {
        "code": "200097",
        "direction": "SE",
        "id": "MTA_200097",
        "lat": 40.574051,
        "locationType": 0,
        "lon": -74.096488,
        "name": "MIDLAND AV/KISWICK ST",
        "routeIds": [
            "MTA NYCT_S51",
            "MTA NYCT_SIM5",
            "MTA NYCT_SIM6",
            "MTA NYCT_SIM9"
        ],
        "wheelchairBoarding": "UNKNOWN"
    },
    {
        "code": "200102",
        "direction": "NE",
        "id": "MTA_200102",
        "lat": 40.572878,
        "locationType": 0,
        "lon": -74.087799,
        "name": "FATHER CAPODANNO BLVD/HUNTER AV",
        "routeIds": [
            "MTA NYCT_S51",
            "MTA NYCT_SIM5",
            "MTA NYCT_SIM6",
            "MTA NYCT_SIM9"
        ],
        "wheelchairBoarding": "UNKNOWN"
    },
    {
        "code": "200104",
        "direction": "NE",
        "id": "MTA_200104",
        "lat": 40.575173,
        "locationType": 0,
        "lon": -74.083821,
        "name": "FATHER CAPODANNO BLVD/SIOUX ST",
        "routeIds": [
            "MTA NYCT_S51",
            "MTA NYCT_SIM5",
            "MTA NYCT_SIM6",
            "MTA NYCT_SIM9"
        ],
        "wheelchairBoarding": "UNKNOWN"
    },
    {
        "code": "200115",
        "direction": "NE",
        "id": "MTA_200115",
        "lat": 40.590397,
        "locationType": 0,
        "lon": -74.066399,
        "name": "FATHER CAPODANNO BLVD/SAND LN",
        "routeIds": [
            "MTA NYCT_SIM5",
            "MTA NYCT_SIM6",
            "MTA NYCT_SIM9"
        ],
        "wheelchairBoarding": "UNKNOWN"
    },
    {
        "code": "200132",
        "direction": "NW",
        "id": "MTA_200132",
        "lat": 40.599189,
        "locationType": 0,
        "lon": -74.063759,
        "name": "LILY POND AV/McCLEAN AV",
        "routeIds": [
            "MTA NYCT_S51",
            "MTA NYCT_S53",
            "MTA NYCT_SIM5",
            "MTA NYCT_SIM6",
            "MTA NYCT_SIM9"
        ],
        "wheelchairBoarding": "UNKNOWN"
    },
    {
        "code": "200165",
        "direction": "N",
        "id": "MTA_200165",
        "lat": 40.595037,
        "locationType": 0,
        "lon": -74.062732,
        "name": "FATHER CAPODANNO BLVD/OCEAN AV",
        "routeIds": [
            "MTA NYCT_S51",
            "MTA NYCT_SIM5",
            "MTA NYCT_SIM6",
            "MTA NYCT_SIM9"
        ],
        "wheelchairBoarding": "UNKNOWN"
    },
    {
        "code": "200171",
        "direction": "SW",
        "id": "MTA_200171",
        "lat": 40.595718,
        "locationType": 0,
        "lon": -74.062669,
        "name": "FATHER CAPODANNO BLVD/ROBIN RD",
        "routeIds": [
            "MTA NYCT_S51",
            "MTA NYCT_SIM5",
            "MTA NYCT_SIM6",
            "MTA NYCT_SIM9"
        ],
        "wheelchairBoarding": "UNKNOWN"
    },
    {
        "code": "200219",
        "direction": "SW",
        "id": "MTA_200219",
        "lat": 40.586334,
        "locationType": 0,
        "lon": -74.070612,
        "name": "FATHER CAPODANNO BLVD/WINFIELD ST",
        "routeIds": [
            "MTA NYCT_S52",
            "MTA NYCT_S81",
            "MTA NYCT_SIM5",
            "MTA NYCT_SIM6",
            "MTA NYCT_SIM9"
        ],
        "wheelchairBoarding": "UNKNOWN"
    },
    {
        "code": "200223",
        "direction": "SW",
        "id": "MTA_200223",
        "lat": 40.579032,
        "locationType": 0,
        "lon": -74.078173,
        "name": "FATHER CAPODANNO BLVD/SEAVIEW AV",
        "routeIds": [
            "MTA NYCT_S51",
            "MTA NYCT_S81",
            "MTA NYCT_SIM5",
            "MTA NYCT_SIM6",
            "MTA NYCT_SIM9"
        ],
        "wheelchairBoarding": "UNKNOWN"
    },
    {
        "code": "200234",
        "direction": "NW",
        "id": "MTA_200234",
        "lat": 40.574688,
        "locationType": 0,
        "lon": -74.097292,
        "name": "MIDLAND AV/MORELAND ST",
        "routeIds": [
            "MTA NYCT_S51",
            "MTA NYCT_S81",
            "MTA NYCT_SIM5",
            "MTA NYCT_SIM6",
            "MTA NYCT_SIM9"
        ],
        "wheelchairBoarding": "UNKNOWN"
    },
    {
        "code": "200359",
        "direction": "SE",
        "id": "MTA_200359",
        "lat": 40.555286,
        "locationType": 0,
        "lon": -74.152234,
        "name": "GIFFORDS LN/WOODLAND AV",
        "routeIds": [
            "MTA NYCT_S54",
            "MTA NYCT_SIM5",
            "MTA NYCT_SIM6"
        ],
        "wheelchairBoarding": "UNKNOWN"
    },
    {
        "code": "200361",
        "direction": "SE",
        "id": "MTA_200361",
        "lat": 40.550038,
        "locationType": 0,
        "lon": -74.150987,
        "name": "NELSON AV/AMBOY RD",
        "routeIds": [
            "MTA NYCT_S54",
            "MTA NYCT_SIM5",
            "MTA NYCT_SIM6"
        ],
        "wheelchairBoarding": "UNKNOWN"
    },
    {
        "code": "200363",
        "direction": "SE",
        "id": "MTA_200363",
        "lat": 40.544923,
        "locationType": 0,
        "lon": -74.148604,
        "name": "NELSON AV/HILLCREST ST",
        "routeIds": [
            "MTA NYCT_S54",
            "MTA NYCT_SIM5",
            "MTA NYCT_SIM6"
        ],
        "wheelchairBoarding": "UNKNOWN"
    },
    {
        "code": "200484",
        "direction": "NW",
        "id": "MTA_200484",
        "lat": 40.542676,
        "locationType": 0,
        "lon": -74.146084,
        "name": "NELSON AV/HYLAN BLVD",
        "routeIds": [
            "MTA NYCT_S54",
            "MTA NYCT_SIM5",
            "MTA NYCT_SIM6"
        ],
        "wheelchairBoarding": "UNKNOWN"
    },
    {
        "code": "200486",
        "direction": "NW",
        "id": "MTA_200486",
        "lat": 40.545058,
        "locationType": 0,
        "lon": -74.14854,
        "name": "NELSON AV/MONTICELLO TERR",
        "routeIds": [
            "MTA NYCT_S54",
            "MTA NYCT_SIM5",
            "MTA NYCT_SIM6"
        ],
        "wheelchairBoarding": "UNKNOWN"
    },
    {
        "code": "200488",
        "direction": "N",
        "id": "MTA_200488",
        "lat": 40.549872,
        "locationType": 0,
        "lon": -74.150666,
        "name": "NELSON AV/AMBOY RD",
        "routeIds": [
            "MTA NYCT_S54",
            "MTA NYCT_SIM5",
            "MTA NYCT_SIM6"
        ],
        "wheelchairBoarding": "UNKNOWN"
    },
    {
        "code": "200491",
        "direction": "NW",
        "id": "MTA_200491",
        "lat": 40.555681,
        "locationType": 0,
        "lon": -74.152216,
        "name": "GIFFORDS LN/GIBSON AV",
        "routeIds": [
            "MTA NYCT_S54",
            "MTA NYCT_SIM5",
            "MTA NYCT_SIM6"
        ],
        "wheelchairBoarding": "UNKNOWN"
    },
    {
        "code": "201003",
        "direction": "NE",
        "id": "MTA_201003",
        "lat": 40.542586,
        "locationType": 0,
        "lon": -74.145566,
        "name": "HYLAN BLVD/NELSON AV",
        "routeIds": [
            "MTA NYCT_S78",
            "MTA NYCT_S79+",
            "MTA NYCT_SIM1",
            "MTA NYCT_SIM1C",
            "MTA NYCT_SIM5",
            "MTA NYCT_SIM6",
            "MTA NYCT_SIM7",
            "MTA NYCT_SIM9",
            "MTA NYCT_SIM10"
        ],
        "wheelchairBoarding": "UNKNOWN"
    },
    {
        "code": "201005",
        "direction": "NE",
        "id": "MTA_201005",
        "lat": 40.545568,
        "locationType": 0,
        "lon": -74.142352,
        "name": "HYLAN BLVD/HILLSIDE TERR",
        "routeIds": [
            "MTA NYCT_S78",
            "MTA NYCT_SIM1",
            "MTA NYCT_SIM1C",
            "MTA NYCT_SIM5",
            "MTA NYCT_SIM6",
            "MTA NYCT_SIM7",
            "MTA NYCT_SIM9",
            "MTA NYCT_SIM10"
        ],
        "wheelchairBoarding": "UNKNOWN"
    },
    {
        "code": "201008",
        "direction": "NE",
        "id": "MTA_201008",
        "lat": 40.549747,
        "locationType": 0,
        "lon": -74.136899,
        "name": "HYLAN BLVD/KEEGANS LN",
        "routeIds": [
            "MTA NYCT_S78",
            "MTA NYCT_SIM1",
            "MTA NYCT_SIM1C",
            "MTA NYCT_SIM5",
            "MTA NYCT_SIM6",
            "MTA NYCT_SIM7",
            "MTA NYCT_SIM9",
            "MTA NYCT_SIM10"
        ],
        "wheelchairBoarding": "UNKNOWN"
    },
    {
        "code": "201010",
        "direction": "NE",
        "id": "MTA_201010",
        "lat": 40.552493,
        "locationType": 0,
        "lon": -74.132806,
        "name": "HYLAN BLVD/BAY TERR",
        "routeIds": [
            "MTA NYCT_S78",
            "MTA NYCT_S79+",
            "MTA NYCT_SIM1",
            "MTA NYCT_SIM1C",
            "MTA NYCT_SIM5",
            "MTA NYCT_SIM6",
            "MTA NYCT_SIM7",
            "MTA NYCT_SIM9",
            "MTA NYCT_SIM10"
        ],
        "wheelchairBoarding": "UNKNOWN"
    },
    {
        "code": "201012",
        "direction": "NE",
        "id": "MTA_201012",
        "lat": 40.556809,
        "locationType": 0,
        "lon": -74.127636,
        "name": "HYLAN BLVD/BUFFALO ST",
        "routeIds": [
            "MTA NYCT_S78",
            "MTA NYCT_S79+",
            "MTA NYCT_SIM1",
            "MTA NYCT_SIM1C",
            "MTA NYCT_SIM5",
            "MTA NYCT_SIM6",
            "MTA NYCT_SIM7",
            "MTA NYCT_SIM9",
            "MTA NYCT_SIM10"
        ],
        "wheelchairBoarding": "UNKNOWN"
    },
    {
        "code": "201014",
        "direction": "NE",
        "id": "MTA_201014",
        "lat": 40.5591,
        "locationType": 0,
        "lon": -74.12515,
        "name": "HYLAN BLVD/MONTREAL AV",
        "routeIds": [
            "MTA NYCT_S78",
            "MTA NYCT_SIM1",
            "MTA NYCT_SIM1C",
            "MTA NYCT_SIM5",
            "MTA NYCT_SIM6",
            "MTA NYCT_SIM7",
            "MTA NYCT_SIM9",
            "MTA NYCT_SIM10"
        ],
        "wheelchairBoarding": "UNKNOWN"
    },
    {
        "code": "201016",
        "direction": "NE",
        "id": "MTA_201016",
        "lat": 40.560575,
        "locationType": 0,
        "lon": -74.119668,
        "name": "HYLAN BLVD/GUYON AV",
        "routeIds": [
            "MTA NYCT_S78",
            "MTA NYCT_S79+",
            "MTA NYCT_SIM1",
            "MTA NYCT_SIM1C",
            "MTA NYCT_SIM5",
            "MTA NYCT_SIM6",
            "MTA NYCT_SIM7",
            "MTA NYCT_SIM9",
            "MTA NYCT_SIM10"
        ],
        "wheelchairBoarding": "UNKNOWN"
    },
    {
        "code": "201020",
        "direction": "NE",
        "id": "MTA_201020",
        "lat": 40.566683,
        "locationType": 0,
        "lon": -74.113387,
        "name": "HYLAN BLVD/EBBITTS ST",
        "routeIds": [
            "MTA NYCT_S78",
            "MTA NYCT_S79+",
            "MTA NYCT_SIM1",
            "MTA NYCT_SIM1C",
            "MTA NYCT_SIM5",
            "MTA NYCT_SIM6",
            "MTA NYCT_SIM7",
            "MTA NYCT_SIM9",
            "MTA NYCT_SIM10",
            "MTA NYCT_SIM11"
        ],
        "wheelchairBoarding": "UNKNOWN"
    },
    {
        "code": "201117",
        "direction": "SW",
        "id": "MTA_201117",
        "lat": 40.57629,
        "locationType": 0,
        "lon": -74.104087,
        "name": "HYLAN BLVD/LINCOLN AV",
        "routeIds": [
            "MTA NYCT_S78",
            "MTA NYCT_SIM1",
            "MTA NYCT_SIM1C",
            "MTA NYCT_SIM5",
            "MTA NYCT_SIM6",
            "MTA NYCT_SIM7",
            "MTA NYCT_SIM9",
            "MTA NYCT_SIM10",
            "MTA NYCT_SIM11"
        ],
        "wheelchairBoarding": "UNKNOWN"
    },
    {
        "code": "201124",
        "direction": "SW",
        "id": "MTA_201124",
        "lat": 40.566858,
        "locationType": 0,
        "lon": -74.113582,
        "name": "HYLAN BLVD/LINDBERGH AV",
        "routeIds": [
            "MTA NYCT_S78",
            "MTA NYCT_S79+",
            "MTA NYCT_SIM1",
            "MTA NYCT_SIM1C",
            "MTA NYCT_SIM5",
            "MTA NYCT_SIM6",
            "MTA NYCT_SIM7",
            "MTA NYCT_SIM9",
            "MTA NYCT_SIM10",
            "MTA NYCT_SIM11"
        ],
        "wheelchairBoarding": "UNKNOWN"
    },
    {
        "code": "201126",
        "direction": "SW",
        "id": "MTA_201126",
        "lat": 40.56374,
        "locationType": 0,
        "lon": -74.116769,
        "name": "HYLAN BLVD/TYSENS LN",
        "routeIds": [
            "MTA NYCT_S57",
            "MTA NYCT_S78",
            "MTA NYCT_S79+",
            "MTA NYCT_SIM1",
            "MTA NYCT_SIM1C",
            "MTA NYCT_SIM5",
            "MTA NYCT_SIM6",
            "MTA NYCT_SIM7",
            "MTA NYCT_SIM9",
            "MTA NYCT_SIM10"
        ],
        "wheelchairBoarding": "UNKNOWN"
    },
    {
        "code": "201128",
        "direction": "SW",
        "id": "MTA_201128",
        "lat": 40.560209,
        "locationType": 0,
        "lon": -74.120441,
        "name": "HYLAN BLVD/GUYON AV",
        "routeIds": [
            "MTA NYCT_S78",
            "MTA NYCT_S79+",
            "MTA NYCT_SIM1",
            "MTA NYCT_SIM1C",
            "MTA NYCT_SIM5",
            "MTA NYCT_SIM6",
            "MTA NYCT_SIM7",
            "MTA NYCT_SIM9",
            "MTA NYCT_SIM10"
        ],
        "wheelchairBoarding": "UNKNOWN"
    },
    {
        "code": "201130",
        "direction": "SW",
        "id": "MTA_201130",
        "lat": 40.558757,
        "locationType": 0,
        "lon": -74.125883,
        "name": "HYLAN BLVD/MONTREAL AV",
        "routeIds": [
            "MTA NYCT_S78",
            "MTA NYCT_SIM1",
            "MTA NYCT_SIM1C",
            "MTA NYCT_SIM5",
            "MTA NYCT_SIM6",
            "MTA NYCT_SIM7",
            "MTA NYCT_SIM9",
            "MTA NYCT_SIM10"
        ],
        "wheelchairBoarding": "UNKNOWN"
    },
    {
        "code": "201132",
        "direction": "SW",
        "id": "MTA_201132",
        "lat": 40.556396,
        "locationType": 0,
        "lon": -74.12847,
        "name": "HYLAN BLVD/BUFFALO ST",
        "routeIds": [
            "MTA NYCT_S78",
            "MTA NYCT_S79+",
            "MTA NYCT_SIM1",
            "MTA NYCT_SIM1C",
            "MTA NYCT_SIM5",
            "MTA NYCT_SIM6",
            "MTA NYCT_SIM7",
            "MTA NYCT_SIM9",
            "MTA NYCT_SIM10"
        ],
        "wheelchairBoarding": "UNKNOWN"
    },
    {
        "code": "201133",
        "direction": "SW",
        "id": "MTA_201133",
        "lat": 40.552258,
        "locationType": 0,
        "lon": -74.133468,
        "name": "HYLAN BLVD/BAY TERR",
        "routeIds": [
            "MTA NYCT_S78",
            "MTA NYCT_SIM1",
            "MTA NYCT_SIM1C",
            "MTA NYCT_SIM5",
            "MTA NYCT_SIM6",
            "MTA NYCT_SIM7",
            "MTA NYCT_SIM9",
            "MTA NYCT_SIM10"
        ],
        "wheelchairBoarding": "UNKNOWN"
    },
    {
        "code": "201136",
        "direction": "SW",
        "id": "MTA_201136",
        "lat": 40.549433,
        "locationType": 0,
        "lon": -74.137805,
        "name": "HYLAN BLVD/KEEGANS LN",
        "routeIds": [
            "MTA NYCT_S78",
            "MTA NYCT_SIM1",
            "MTA NYCT_SIM1C",
            "MTA NYCT_SIM5",
            "MTA NYCT_SIM6",
            "MTA NYCT_SIM7",
            "MTA NYCT_SIM9",
            "MTA NYCT_SIM10"
        ],
        "wheelchairBoarding": "UNKNOWN"
    },
    {
        "code": "201139",
        "direction": "SW",
        "id": "MTA_201139",
        "lat": 40.545287,
        "locationType": 0,
        "lon": -74.143082,
        "name": "HYLAN BLVD/HILLSIDE TERR",
        "routeIds": [
            "MTA NYCT_S78",
            "MTA NYCT_SIM1",
            "MTA NYCT_SIM1C",
            "MTA NYCT_SIM5",
            "MTA NYCT_SIM6",
            "MTA NYCT_SIM7",
            "MTA NYCT_SIM9",
            "MTA NYCT_SIM10"
        ],
        "wheelchairBoarding": "UNKNOWN"
    },
    {
        "code": "201630",
        "direction": "NE",
        "id": "MTA_201630",
        "lat": 40.576815,
        "locationType": 0,
        "lon": -74.103316,
        "name": "HYLAN BLVD/LINCOLN AV",
        "routeIds": [
            "MTA NYCT_S78",
            "MTA NYCT_SIM1",
            "MTA NYCT_SIM1C",
            "MTA NYCT_SIM5",
            "MTA NYCT_SIM6",
            "MTA NYCT_SIM7",
            "MTA NYCT_SIM9",
            "MTA NYCT_SIM10",
            "MTA NYCT_SIM11"
        ],
        "wheelchairBoarding": "UNKNOWN"
    },
    {
        "code": "201680",
        "direction": "SE",
        "id": "MTA_201680",
        "lat": 40.570823,
        "locationType": 0,
        "lon": -74.09053,
        "name": "MIDLAND AV/FATHER CAPODANNO BLVD",
        "routeIds": [
            "MTA NYCT_S51",
            "MTA NYCT_SIM5",
            "MTA NYCT_SIM6",
            "MTA NYCT_SIM9"
        ],
        "wheelchairBoarding": "UNKNOWN"
    },
    {
        "code": "202097",
        "direction": "S",
        "id": "MTA_202097",
        "lat": 40.560594,
        "locationType": 0,
        "lon": -74.171242,
        "name": "ELTINGVILLE/TRANSIT CENTER",
        "routeIds": [
            "MTA NYCT_SIM1",
            "MTA NYCT_SIM1C",
            "MTA NYCT_SIM5",
            "MTA NYCT_SIM6",
            "MTA NYCT_SIM7",
            "MTA NYCT_SIM10"
        ],
        "wheelchairBoarding": "UNKNOWN"
    },
    {
        "code": "203104",
        "direction": "NE",
        "id": "MTA_203104",
        "lat": 40.586862,
        "locationType": 0,
        "lon": -74.069839,
        "name": "FATHER CAPODANNO BLVD/ATLANTIC AV",
        "routeIds": [
            "MTA NYCT_S51",
            "MTA NYCT_S52",
            "MTA NYCT_SIM5",
            "MTA NYCT_SIM6",
            "MTA NYCT_SIM9"
        ],
        "wheelchairBoarding": "UNKNOWN"
    },
    {
        "code": "203226",
        "direction": "SW",
        "id": "MTA_203226",
        "lat": 40.590146,
        "locationType": 0,
        "lon": -74.066995,
        "name": "FATHER CAPODANNO BLVD/SAND LN",
        "routeIds": [
            "MTA NYCT_S51",
            "MTA NYCT_S52",
            "MTA NYCT_S81",
            "MTA NYCT_SIM5",
            "MTA NYCT_SIM6",
            "MTA NYCT_SIM9"
        ],
        "wheelchairBoarding": "UNKNOWN"
    },
    {
        "code": "203236",
        "direction": "NE",
        "id": "MTA_203236",
        "lat": 40.579436,
        "locationType": 0,
        "lon": -74.077418,
        "name": "FATHER CAPODANNO BLVD/SEAVIEW AV",
        "routeIds": [
            "MTA NYCT_S51",
            "MTA NYCT_S52",
            "MTA NYCT_SIM5",
            "MTA NYCT_SIM6",
            "MTA NYCT_SIM9"
        ],
        "wheelchairBoarding": "UNKNOWN"
    },
    {
        "code": "203426",
        "direction": "NW",
        "id": "MTA_203426",
        "lat": 40.571202,
        "locationType": 0,
        "lon": -74.090898,
        "name": "MIDLAND AV/PATTERSON AV",
        "routeIds": [
            "MTA NYCT_S51",
            "MTA NYCT_S81",
            "MTA NYCT_SIM5",
            "MTA NYCT_SIM6",
            "MTA NYCT_SIM9"
        ],
        "wheelchairBoarding": "UNKNOWN"
    },
    {
        "code": "203601",
        "direction": "E",
        "id": "MTA_203601",
        "lat": 40.556502,
        "locationType": 0,
        "lon": -74.155903,
        "name": "LEVERETT AV/DOANE AV",
        "routeIds": [
            "MTA NYCT_SIM5",
            "MTA NYCT_SIM6"
        ],
        "wheelchairBoarding": "UNKNOWN"
    },
    {
        "code": "203634",
        "direction": "SW",
        "id": "MTA_203634",
        "lat": 40.574839,
        "locationType": 0,
        "lon": -74.084779,
        "name": "FATHER CAPODANNO BLVD/GRAHAM BLVD",
        "routeIds": [
            "MTA NYCT_S51",
            "MTA NYCT_S81",
            "MTA NYCT_SIM5",
            "MTA NYCT_SIM6",
            "MTA NYCT_SIM9"
        ],
        "wheelchairBoarding": "UNKNOWN"
    },
    {
        "code": "203696",
        "direction": "SW",
        "id": "MTA_203696",
        "lat": 40.570172,
        "locationType": 0,
        "lon": -74.11024,
        "name": "HYLAN BLVD/CODDINGTON AV",
        "routeIds": [
            "MTA NYCT_SIM1",
            "MTA NYCT_SIM1C",
            "MTA NYCT_SIM5",
            "MTA NYCT_SIM6",
            "MTA NYCT_SIM7",
            "MTA NYCT_SIM9",
            "MTA NYCT_SIM10",
            "MTA NYCT_SIM11"
        ],
        "wheelchairBoarding": "UNKNOWN"
    },
    {
        "code": "203872",
        "direction": "S",
        "id": "MTA_203872",
        "lat": 40.559258,
        "locationType": 0,
        "lon": -74.162252,
        "name": "ARMSTRONG AV/EAST BRANDIS AV",
        "routeIds": [
            "MTA NYCT_SIM5",
            "MTA NYCT_SIM6"
        ],
        "wheelchairBoarding": "UNKNOWN"
    },
    {
        "code": "203874",
        "direction": "N",
        "id": "MTA_203874",
        "lat": 40.559562,
        "locationType": 0,
        "lon": -74.16219,
        "name": "ARMSTRONG AV/EAST BRANDIS AV",
        "routeIds": [
            "MTA NYCT_SIM5",
            "MTA NYCT_SIM6"
        ],
        "wheelchairBoarding": "UNKNOWN"
    },
    {
        "code": "203875",
        "direction": "W",
        "id": "MTA_203875",
        "lat": 40.556399,
        "locationType": 0,
        "lon": -74.157047,
        "name": "LEVERETT AV/COLON AV",
        "routeIds": [
            "MTA NYCT_SIM5",
            "MTA NYCT_SIM6"
        ],
        "wheelchairBoarding": "UNKNOWN"
    },
    {
        "code": "250054",
        "direction": "NE",
        "id": "MTA_250054",
        "lat": 40.565114,
        "locationType": 0,
        "lon": -74.114835,
        "name": "HYLAN BLVD/CANNON BLVD",
        "routeIds": [
            "MTA NYCT_SIM1",
            "MTA NYCT_SIM1C",
            "MTA NYCT_SIM5",
            "MTA NYCT_SIM6",
            "MTA NYCT_SIM7",
            "MTA NYCT_SIM9",
            "MTA NYCT_SIM10",
            "MTA NYCT_SIM11"
        ],
        "wheelchairBoarding": "UNKNOWN"
    },
    {
        "code": "400354",
        "direction": "NE",
        "id": "MTA_400354",
        "lat": 40.748328,
        "locationType": 0,
        "lon": -73.982437,
        "name": "MADISON AV/E 34 ST",
        "routeIds": [
            "MTABC_BM1",
            "MTABC_BM2",
            "MTABC_BM3",
            "MTABC_BM4",
            "MTABC_BM5",
            "MTA NYCT_M3",
            "MTA NYCT_M4",
            "MTA NYCT_Q32",
            "MTA NYCT_SIM4C",
            "MTA NYCT_SIM6",
            "MTA NYCT_SIM11",
            "MTA NYCT_SIM31",
            "MTA NYCT_SIM33C"
        ],
        "wheelchairBoarding": "UNKNOWN"
    },
    {
        "code": "400359",
        "direction": "NE",
        "id": "MTA_400359",
        "lat": 40.756492,
        "locationType": 0,
        "lon": -73.976474,
        "name": "MADISON AV/E 47 ST",
        "routeIds": [
            "MTA NYCT_SIM6",
            "MTA NYCT_SIM8",
            "MTA NYCT_SIM8X",
            "MTA NYCT_SIM11",
            "MTA NYCT_SIM22",
            "MTA NYCT_SIM31"
        ],
        "wheelchairBoarding": "UNKNOWN"
    },
    {
        "code": "401833",
        "direction": "SE",
        "id": "MTA_401833",
        "lat": 40.736691,
        "locationType": 0,
        "lon": -73.978245,
        "name": "E 23 ST/1 AV",
        "routeIds": [
            "MTA NYCT_M23+",
            "MTA NYCT_M34A+",
            "MTA NYCT_M34+",
            "MTA NYCT_SIM3",
            "MTA NYCT_SIM6",
            "MTA NYCT_SIM10",
            "MTA NYCT_SIM11",
            "MTA NYCT_SIM31"
        ],
        "wheelchairBoarding": "UNKNOWN"
    },
    {
        "code": "402133",
        "direction": "SE",
        "id": "MTA_402133",
        "lat": 40.739217,
        "locationType": 0,
        "lon": -73.984281,
        "name": "E 23 ST/LEXINGTON  AV",
        "routeIds": [
            "MTA NYCT_SIM6",
            "MTA NYCT_SIM11",
            "MTA NYCT_X63",
            "MTA NYCT_X64",
            "MTA NYCT_X68"
        ],
        "wheelchairBoarding": "UNKNOWN"
    },
    {
        "code": "402134",
        "direction": "SE",
        "id": "MTA_402134",
        "lat": 40.738589,
        "locationType": 0,
        "lon": -73.982755,
        "name": "E 23 ST/3 AV",
        "routeIds": [
            "MTABC_BM1",
            "MTABC_BM2",
            "MTABC_BM3",
            "MTABC_BM4",
            "MTA NYCT_M23+",
            "MTA NYCT_SIM3",
            "MTA NYCT_SIM6",
            "MTA NYCT_SIM10",
            "MTA NYCT_SIM11",
            "MTA NYCT_SIM31",
            "MTA NYCT_X37",
            "MTA NYCT_X38",
            "MTA NYCT_X63",
            "MTA NYCT_X64"
        ],
        "wheelchairBoarding": "UNKNOWN"
    },
    {
        "code": "402135",
        "direction": "SE",
        "id": "MTA_402135",
        "lat": 40.737682,
        "locationType": 0,
        "lon": -73.980586,
        "name": "E 23 ST/2 AV",
        "routeIds": [
            "MTABC_BM1",
            "MTABC_BM2",
            "MTABC_BM3",
            "MTABC_BM4",
            "MTA NYCT_SIM3",
            "MTA NYCT_SIM6",
            "MTA NYCT_SIM10",
            "MTA NYCT_SIM11",
            "MTA NYCT_SIM31"
        ],
        "wheelchairBoarding": "UNKNOWN"
    },
    {
        "code": "402143",
        "direction": "NW",
        "id": "MTA_402143",
        "lat": 40.737297,
        "locationType": 0,
        "lon": -73.97936,
        "name": "E 23 ST/1 AV",
        "routeIds": [
            "MTABC_BM1",
            "MTABC_BM2",
            "MTABC_BM3",
            "MTABC_BM4",
            "MTA NYCT_M23+",
            "MTA NYCT_SIM3",
            "MTA NYCT_SIM6",
            "MTA NYCT_SIM10",
            "MTA NYCT_SIM11",
            "MTA NYCT_SIM31",
            "MTA NYCT_X37",
            "MTA NYCT_X38",
            "MTA NYCT_X63",
            "MTA NYCT_X64",
            "MTA NYCT_X68"
        ],
        "wheelchairBoarding": "UNKNOWN"
    },
    {
        "code": "402144",
        "direction": "W",
        "id": "MTA_402144",
        "lat": 40.738311,
        "locationType": 0,
        "lon": -73.981712,
        "name": "E 23 ST/2 AV",
        "routeIds": [
            "MTA NYCT_M23+",
            "MTA NYCT_SIM3",
            "MTA NYCT_SIM6",
            "MTA NYCT_SIM10",
            "MTA NYCT_SIM11",
            "MTA NYCT_SIM31"
        ],
        "wheelchairBoarding": "UNKNOWN"
    },
    {
        "code": "402145",
        "direction": "NW",
        "id": "MTA_402145",
        "lat": 40.739027,
        "locationType": 0,
        "lon": -73.983456,
        "name": "E 23 ST/3 AV",
        "routeIds": [
            "MTABC_BM1",
            "MTABC_BM2",
            "MTABC_BM3",
            "MTABC_BM4",
            "MTA NYCT_M23+",
            "MTA NYCT_SIM3",
            "MTA NYCT_SIM6",
            "MTA NYCT_SIM10",
            "MTA NYCT_SIM11",
            "MTA NYCT_SIM31",
            "MTA NYCT_X37",
            "MTA NYCT_X38"
        ],
        "wheelchairBoarding": "UNKNOWN"
    },
    {
        "code": "402214",
        "direction": "SE",
        "id": "MTA_402214",
        "lat": 40.760727,
        "locationType": 0,
        "lon": -73.968725,
        "name": "E 57 ST/LEXINGTON AV",
        "routeIds": [
            "MTA NYCT_M31",
            "MTA NYCT_M57",
            "MTA NYCT_SIM6",
            "MTA NYCT_SIM8",
            "MTA NYCT_SIM8X",
            "MTA NYCT_SIM11",
            "MTA NYCT_SIM22",
            "MTA NYCT_SIM25",
            "MTA NYCT_SIM26",
            "MTA NYCT_SIM31",
            "MTA NYCT_X63",
            "MTA NYCT_X64",
            "MTA NYCT_X68"
        ],
        "wheelchairBoarding": "UNKNOWN"
    },
    {
        "code": "402839",
        "direction": "SW",
        "id": "MTA_402839",
        "lat": 40.758062,
        "locationType": 0,
        "lon": -73.971336,
        "name": "LEXINGTON AV/E 53 ST",
        "routeIds": [
            "MTA NYCT_M101",
            "MTA NYCT_SIM6",
            "MTA NYCT_SIM11",
            "MTA NYCT_SIM22",
            "MTA NYCT_SIM26"
        ],
        "wheelchairBoarding": "UNKNOWN"
    },
    {
        "code": "402851",
        "direction": "SW",
        "id": "MTA_402851",
        "lat": 40.742375,
        "locationType": 0,
        "lon": -73.982721,
        "name": "LEXINGTON AV/E 28 ST",
        "routeIds": [
            "MTA NYCT_M101",
            "MTA NYCT_M102",
            "MTA NYCT_M103",
            "MTA NYCT_SIM6",
            "MTA NYCT_SIM11"
        ],
        "wheelchairBoarding": "UNKNOWN"
    },
    {
        "code": "403620",
        "direction": "SE",
        "id": "MTA_403620",
        "lat": 40.762047,
        "locationType": 0,
        "lon": -73.971943,
        "name": "E 57 ST/MADISON AV",
        "routeIds": [
            "MTA NYCT_M31",
            "MTA NYCT_M57",
            "MTA NYCT_SIM6",
            "MTA NYCT_SIM8",
            "MTA NYCT_SIM11",
            "MTA NYCT_SIM22",
            "MTA NYCT_SIM25",
            "MTA NYCT_SIM26",
            "MTA NYCT_SIM31"
        ],
        "wheelchairBoarding": "UNKNOWN"
    },
    {
        "code": "404176",
        "direction": "SW",
        "id": "MTA_404176",
        "lat": 40.750881,
        "locationType": 0,
        "lon": -73.976569,
        "name": "LEXINGTON AV/E 41 ST",
        "routeIds": [
            "MTA NYCT_SIM6",
            "MTA NYCT_SIM11"
        ],
        "wheelchairBoarding": "UNKNOWN"
    },
    {
        "code": "404239",
        "direction": "SW",
        "id": "MTA_404239",
        "lat": 40.74593,
        "locationType": 0,
        "lon": -73.980183,
        "name": "LEXINGTON AV/E 34 ST",
        "routeIds": [
            "MTA NYCT_SIM6",
            "MTA NYCT_SIM11"
        ],
        "wheelchairBoarding": "UNKNOWN"
    },
    {
        "code": "404300",
        "direction": "NE",
        "id": "MTA_404300",
        "lat": 40.760615,
        "locationType": 0,
        "lon": -73.973461,
        "name": "MADISON AV/E 54 ST",
        "routeIds": [
            "MTA NYCT_SIM4C",
            "MTA NYCT_SIM6",
            "MTA NYCT_SIM8",
            "MTA NYCT_SIM8X",
            "MTA NYCT_SIM11",
            "MTA NYCT_SIM22",
            "MTA NYCT_SIM31",
            "MTA NYCT_SIM33C",
            "MTA NYCT_X63",
            "MTA NYCT_X64",
            "MTA NYCT_X68"
        ],
        "wheelchairBoarding": "UNKNOWN"
    },
    {
        "code": "404833",
        "direction": "NW",
        "id": "MTA_404833",
        "lat": 40.740491,
        "locationType": 0,
        "lon": -73.986847,
        "name": "E 23 ST/PARK AV SOUTH",
        "routeIds": [
            "MTABC_BM1",
            "MTABC_BM2",
            "MTABC_BM3",
            "MTABC_BM4",
            "MTA NYCT_M23+",
            "MTA NYCT_SIM3",
            "MTA NYCT_SIM6",
            "MTA NYCT_SIM10",
            "MTA NYCT_SIM11",
            "MTA NYCT_SIM31"
        ],
        "wheelchairBoarding": "UNKNOWN"
    },
    {
        "code": "450040",
        "direction": "NE",
        "id": "MTA_450040",
        "lat": 40.752415,
        "locationType": 0,
        "lon": -73.97947,
        "name": "MADISON AV/E 41 ST",
        "routeIds": [
            "MTA NYCT_SIM6",
            "MTA NYCT_SIM11"
        ],
        "wheelchairBoarding": "UNKNOWN"
    },
    {
        "code": "805168",
        "direction": "NE",
        "id": "MTA_805168",
        "lat": 40.570271,
        "locationType": 0,
        "lon": -74.109771,
        "name": "HYLAN BLVD/NEW DORP LN",
        "routeIds": [
            "MTA NYCT_S79+",
            "MTA NYCT_SIM1",
            "MTA NYCT_SIM1C",
            "MTA NYCT_SIM5",
            "MTA NYCT_SIM6",
            "MTA NYCT_SIM7",
            "MTA NYCT_SIM9",
            "MTA NYCT_SIM10",
            "MTA NYCT_SIM11"
        ],
        "wheelchairBoarding": "UNKNOWN"
    },
    {
        "code": "905046",
        "direction": "S",
        "id": "MTA_905046",
        "lat": 40.560931,
        "locationType": 0,
        "lon": -74.171352,
        "name": "ELTINGVILLE/TRANSIT CENTER",
        "routeIds": [
            "MTA NYCT_S55",
            "MTA NYCT_S56",
            "MTA NYCT_S59",
            "MTA NYCT_S74",
            "MTA NYCT_S89",
            "MTA NYCT_SIM1",
            "MTA NYCT_SIM1C",
            "MTA NYCT_SIM4",
            "MTA NYCT_SIM5",
            "MTA NYCT_SIM6",
            "MTA NYCT_SIM7",
            "MTA NYCT_SIM8",
            "MTA NYCT_SIM10",
            "MTA NYCT_SIM15",
            "MTA NYCT_SIM31"
        ],
        "wheelchairBoarding": "UNKNOWN"
    },
    {
        "code": "905051",
        "direction": "SE",
        "id": "MTA_905051",
        "lat": 40.598827,
        "locationType": 0,
        "lon": -74.063766,
        "name": "LILY POND AV/McCLEAN AV",
        "routeIds": [
            "MTA NYCT_SIM5",
            "MTA NYCT_SIM6",
            "MTA NYCT_SIM9"
        ],
        "wheelchairBoarding": "UNKNOWN"
    },
    {
        "code": "905218",
        "direction": "SW",
        "id": "MTA_905218",
        "lat": 40.753912,
        "locationType": 0,
        "lon": -73.974299,
        "name": "LEXINGTON AV/E 46 ST",
        "routeIds": [
            "MTA NYCT_SIM6",
            "MTA NYCT_SIM11",
            "MTA NYCT_SIM22",
            "MTA NYCT_SIM26"
        ],
        "wheelchairBoarding": "UNKNOWN"
    },
    {
        "code": "905219",
        "direction": "SW",
        "id": "MTA_905219",
        "lat": 40.759677,
        "locationType": 0,
        "lon": -73.970083,
        "name": "LEXINGTON AV/E 55 ST",
        "routeIds": [
            "MTA NYCT_SIM6",
            "MTA NYCT_SIM11"
        ],
        "wheelchairBoarding": "UNKNOWN"
    }
]