[
    {
        "code": "200097",
        "direction": "SE",
        "id": "MTA_200097",
        "lat": 40.574051,
        "locationType": 0,
        "lon": -74.096488,
        "name": "MIDLAND AV/KISWICK ST",
        "routeIds": [
            "MTA NYCT_S51",
            "MTA NYCT_SIM5",
            "MTA NYCT_SIM6",
            "MTA NYCT_SIM9"
        ],
        "wheelchairBoarding": "UNKNOWN"
    },
    {
        "code": "200102",
        "direction": "NE",
        "id": "MTA_200102",
        "lat": 40.572878,
        "locationType": 0,
        "lon": -74.087799,
        "name": "FATHER CAPODANNO BLVD/HUNTER AV",
        "routeIds": [
            "MTA NYCT_S51",
            "MTA NYCT_SIM5",
            "MTA NYCT_SIM6",
            "MTA NYCT_SIM9"
        ],
        "wheelchairBoarding": "UNKNOWN"
    },
    {
        "code": "200104",
        "direction": "NE",
        "id": "MTA_200104",
        "lat": 40.575173,
        "locationType": 0,
        "lon": -74.083821,
        "name": "FATHER CAPODANNO BLVD/SIOUX ST",
        "routeIds": [
            "MTA NYCT_S51",
            "MTA NYCT_SIM5",
            "MTA NYCT_SIM6",
            "MTA NYCT_SIM9"
        ],
        "wheelchairBoarding": "UNKNOWN"
    },
    {
        "code": "200115",
        "direction": "NE",
        "id": "MTA_200115",
        "lat": 40.590397,
        "locationType": 0,
        "lon": -74.066399,
        "name": "FATHER CAPODANNO BLVD/SAND LN",
        "routeIds": [
            "MTA NYCT_SIM5",
            "MTA NYCT_SIM6",
            "MTA NYCT_SIM9"
        ],
        "wheelchairBoarding": "UNKNOWN"
    },
    {
        "code": "200132",
        "direction": "NW",
        "id": "MTA_200132",
        "lat": 40.599189,
        "locationType": 0,
        "lon": -74.063759,
        "name": "LILY POND AV/McCLEAN AV",
        "routeIds": [
            "MTA NYCT_S51",
            "MTA NYCT_S53",
            "MTA NYCT_SIM5",
            "MTA NYCT_SIM6",
            "MTA NYCT_SIM9"
        ],
        "wheelchairBoarding": "UNKNOWN"
    },
    {
        "code": "200165",
        "direction": "N",
        "id": "MTA_200165",
        "lat": 40.595037,
        "locationType": 0,
        "lon": -74.062732,
        "name": "FATHER CAPODANNO BLVD/OCEAN AV",
        "routeIds": [
            "MTA NYCT_S51",
            "MTA NYCT_SIM5",
            "MTA NYCT_SIM6",
            "MTA NYCT_SIM9"
        ],
        "wheelchairBoarding": "UNKNOWN"
    },
    {
        "code": "200171",
        "direction": "SW",
        "id": "MTA_200171",
        "lat": 40.595718,
        "locationType": 0,
        "lon": -74.062669,
        "name": "FATHER CAPODANNO BLVD/ROBIN RD",
        "routeIds": [
            "MTA NYCT_S51",
            "MTA NYCT_SIM5",
            "MTA NYCT_SIM6",
            "MTA NYCT_SIM9"
        ],
        "wheelchairBoarding": "UNKNOWN"
    },
    {
        "code": "200219",
        "direction": "SW",
        "id": "MTA_200219",
        "lat": 40.586334,
        "locationType": 0,
        "lon": -74.070612,
        "name": "FATHER CAPODANNO BLVD/WINFIELD ST",
        "routeIds": [
            "MTA NYCT_S52",
            "MTA NYCT_S81",
            "MTA NYCT_SIM5",
            "MTA NYCT_SIM6",
            "MTA NYCT_SIM9"
        ],
        "wheelchairBoarding": "UNKNOWN"
    },
    {
        "code": "200223",
        "direction": "SW",
        "id": "MTA_200223",
        "lat": 40.579032,
        "locationType": 0,
        "lon": -74.078173,
        "name": "FATHER CAPODANNO BLVD/SEAVIEW AV",
        "routeIds": [
            "MTA NYCT_S51",
            "MTA NYCT_S81",
            "MTA NYCT_SIM5",
            "MTA NYCT_SIM6",
            "MTA NYCT_SIM9"
        ],
        "wheelchairBoarding": "UNKNOWN"
    },
    {
        "code": "200234",
        "direction": "NW",
        "id": "MTA_200234",
        "lat": 40.574688,
        "locationType": 0,
        "lon": -74.097292,
        "name": "MIDLAND AV/MORELAND ST",
        "routeIds": [
            "MTA NYCT_S51",
            "MTA NYCT_S81",
            "MTA NYCT_SIM5",
            "MTA NYCT_SIM6",
            "MTA NYCT_SIM9"
        ],
        "wheelchairBoarding": "UNKNOWN"
    },
    {
        "code": "200368",
        "direction": "SW",
        "id": "MTA_200368",
        "lat": 40.537497,
        "locationType": 0,
        "lon": -74.150362,
        "name": "HYLAN BLVD/ARMSTRONG AV",
        "routeIds": [
            "MTA NYCT_S54",
            "MTA NYCT_S78",
            "MTA NYCT_SIM1",
            "MTA NYCT_SIM1C",
            "MTA NYCT_SIM7",
            "MTA NYCT_SIM9",
            "MTA NYCT_SIM10"
        ],
        "wheelchairBoarding": "UNKNOWN"
    },
    {
        "code": "200371",
        "direction": "NW",
        "id": "MTA_200371",
        "lat": 40.53454,
        "locationType": 0,
        "lon": -74.154361,
        "name": "RICHMOND AV/HYLAN BLVD",
        "routeIds": [
            "MTA NYCT_S59",
            "MTA NYCT_S79+",
            "MTA NYCT_SIM1",
            "MTA NYCT_SIM1C",
            "MTA NYCT_SIM7",
            "MTA NYCT_SIM9",
            "MTA NYCT_SIM10",
            "MTA NYCT_SIM22"
        ],
        "wheelchairBoarding": "UNKNOWN"
    },
    {
        "code": "201003",
        "direction": "NE",
        "id": "MTA_201003",
        "lat": 40.542586,
        "locationType": 0,
        "lon": -74.145566,
        "name": "HYLAN BLVD/NELSON AV",
        "routeIds": [
            "MTA NYCT_S78",
            "MTA NYCT_S79+",
            "MTA NYCT_SIM1",
            "MTA NYCT_SIM1C",
            "MTA NYCT_SIM5",
            "MTA NYCT_SIM6",
            "MTA NYCT_SIM7",
            "MTA NYCT_SIM9",
            "MTA NYCT_SIM10"
        ],
        "wheelchairBoarding": "UNKNOWN"
    },
    {
        "code": "201005",
        "direction": "NE",
        "id": "MTA_201005",
        "lat": 40.545568,
        "locationType": 0,
        "lon": -74.142352,
        "name": "HYLAN BLVD/HILLSIDE TERR",
        "routeIds": [
            "MTA NYCT_S78",
            "MTA NYCT_SIM1",
            "MTA NYCT_SIM1C",
            "MTA NYCT_SIM5",
            "MTA NYCT_SIM6",
            "MTA NYCT_SIM7",
            "MTA NYCT_SIM9",
            "MTA NYCT_SIM10"
        ],
        "wheelchairBoarding": "UNKNOWN"
    },
    {
        "code": "201008",
        "direction": "NE",
        "id": "MTA_201008",
        "lat": 40.549747,
        "locationType": 0,
        "lon": -74.136899,
        "name": "HYLAN BLVD/KEEGANS LN",
        "routeIds": [
            "MTA NYCT_S78",
            "MTA NYCT_SIM1",
            "MTA NYCT_SIM1C",
            "MTA NYCT_SIM5",
            "MTA NYCT_SIM6",
            "MTA NYCT_SIM7",
            "MTA NYCT_SIM9",
            "MTA NYCT_SIM10"
        ],
        "wheelchairBoarding": "UNKNOWN"
    },
    {
        "code": "201010",
        "direction": "NE",
        "id": "MTA_201010",
        "lat": 40.552493,
        "locationType": 0,
        "lon": -74.132806,
        "name": "HYLAN BLVD/BAY TERR",
        "routeIds": [
            "MTA NYCT_S78",
            "MTA NYCT_S79+",
            "MTA NYCT_SIM1",
            "MTA NYCT_SIM1C",
            "MTA NYCT_SIM5",
            "MTA NYCT_SIM6",
            "MTA NYCT_SIM7",
            "MTA NYCT_SIM9",
            "MTA NYCT_SIM10"
        ],
        "wheelchairBoarding": "UNKNOWN"
    },
    {
        "code": "201012",
        "direction": "NE",
        "id": "MTA_201012",
        "lat": 40.556809,
        "locationType": 0,
        "lon": -74.127636,
        "name": "HYLAN BLVD/BUFFALO ST",
        "routeIds": [
            "MTA NYCT_S78",
            "MTA NYCT_S79+",
            "MTA NYCT_SIM1",
            "MTA NYCT_SIM1C",
            "MTA NYCT_SIM5",
            "MTA NYCT_SIM6",
            "MTA NYCT_SIM7",
            "MTA NYCT_SIM9",
            "MTA NYCT_SIM10"
        ],
        "wheelchairBoarding": "UNKNOWN"
    },
    {
        "code": "201014",
        "direction": "NE",
        "id": "MTA_201014",
        "lat": 40.5591,
        "locationType": 0,
        "lon": -74.12515,
        "name": "HYLAN BLVD/MONTREAL AV",
        "routeIds": [
            "MTA NYCT_S78",
            "MTA NYCT_SIM1",
            "MTA NYCT_SIM1C",
            "MTA NYCT_SIM5",
            "MTA NYCT_SIM6",
            "MTA NYCT_SIM7",
            "MTA NYCT_SIM9",
            "MTA NYCT_SIM10"
        ],
        "wheelchairBoarding": "UNKNOWN"
    },
    {
        "code": "201016",
        "direction": "NE",
        "id": "MTA_201016",
        "lat": 40.560575,
        "locationType": 0,
        "lon": -74.119668,
        "name": "HYLAN BLVD/GUYON AV",
        "routeIds": [
            "MTA NYCT_S78",
            "MTA NYCT_S79+",
            "MTA NYCT_SIM1",
            "MTA NYCT_SIM1C",
            "MTA NYCT_SIM5",
            "MTA NYCT_SIM6",
            "MTA NYCT_SIM7",
            "MTA NYCT_SIM9",
            "MTA NYCT_SIM10"
        ],
        "wheelchairBoarding": "UNKNOWN"
    },
    {
        "code": "201020",
        "direction": "NE",
        "id": "MTA_201020",
        "lat": 40.566683,
        "locationType": 0,
        "lon": -74.113387,
        "name": "HYLAN BLVD/EBBITTS ST",
        "routeIds": [
            "MTA NYCT_S78",
            "MTA NYCT_S79+",
            "MTA NYCT_SIM1",
            "MTA NYCT_SIM1C",
            "MTA NYCT_SIM5",
            "MTA NYCT_SIM6",
            "MTA NYCT_SIM7",
            "MTA NYCT_SIM9",
            "MTA NYCT_SIM10",
            "MTA NYCT_SIM11"
        ],
        "wheelchairBoarding": "UNKNOWN"
    },
    {
        "code": "201117",
        "direction": "SW",
        "id": "MTA_201117",
        "lat": 40.57629,
        "locationType": 0,
        "lon": -74.104087,
        "name": "HYLAN BLVD/LINCOLN AV",
        "routeIds": [
            "MTA NYCT_S78",
            "MTA NYCT_SIM1",
            "MTA NYCT_SIM1C",
            "MTA NYCT_SIM5",
            "MTA NYCT_SIM6",
            "MTA NYCT_SIM7",
            "MTA NYCT_SIM9",
            "MTA NYCT_SIM10",
            "MTA NYCT_SIM11"
        ],
        "wheelchairBoarding": "UNKNOWN"
    },
    {
        "code": "201124",
        "direction": "SW",
        "id": "MTA_201124",
        "lat": 40.566858,
        "locationType": 0,
        "lon": -74.113582,
        "name": "HYLAN BLVD/LINDBERGH AV",
        "routeIds": [
            "MTA NYCT_S78",
            "MTA NYCT_S79+",
            "MTA NYCT_SIM1",
            "MTA NYCT_SIM1C",
            "MTA NYCT_SIM5",
            "MTA NYCT_SIM6",
            "MTA NYCT_SIM7",
            "MTA NYCT_SIM9",
            "MTA NYCT_SIM10",
            "MTA NYCT_SIM11"
        ],
        "wheelchairBoarding": "UNKNOWN"
    },
    {
        "code": "201126",
        "direction": "SW",
        "id": "MTA_201126",
        "lat": 40.56374,
        "locationType": 0,
        "lon": -74.116769,
        "name": "HYLAN BLVD/TYSENS LN",
        "routeIds": [
            "MTA NYCT_S57",
            "MTA NYCT_S78",
            "MTA NYCT_S79+",
            "MTA NYCT_SIM1",
            "MTA NYCT_SIM1C",
            "MTA NYCT_SIM5",
            "MTA NYCT_SIM6",
            "MTA NYCT_SIM7",
            "MTA NYCT_SIM9",
            "MTA NYCT_SIM10"
        ],
        "wheelchairBoarding": "UNKNOWN"
    },
    {
        "code": "201128",
        "direction": "SW",
        "id": "MTA_201128",
        "lat": 40.560209,
        "locationType": 0,
        "lon": -74.120441,
        "name": "HYLAN BLVD/GUYON AV",
        "routeIds": [
            "MTA NYCT_S78",
            "MTA NYCT_S79+",
            "MTA NYCT_SIM1",
            "MTA NYCT_SIM1C",
            "MTA NYCT_SIM5",
            "MTA NYCT_SIM6",
            "MTA NYCT_SIM7",
            "MTA NYCT_SIM9",
            "MTA NYCT_SIM10"
        ],
        "wheelchairBoarding": "UNKNOWN"
    },
    {
        "code": "201130",
        "direction": "SW",
        "id": "MTA_201130",
        "lat": 40.558757,
        "locationType": 0,
        "lon": -74.125883,
        "name": "HYLAN BLVD/MONTREAL AV",
        "routeIds": [
            "MTA NYCT_S78",
            "MTA NYCT_SIM1",
            "MTA NYCT_SIM1C",
            "MTA NYCT_SIM5",
            "MTA NYCT_SIM6",
            "MTA NYCT_SIM7",
            "MTA NYCT_SIM9",
            "MTA NYCT_SIM10"
        ],
        "wheelchairBoarding": "UNKNOWN"
    },
    {
        "code": "201132",
        "direction": "SW",
        "id": "MTA_201132",
        "lat": 40.556396,
        "locationType": 0,
        "lon": -74.12847,
        "name": "HYLAN BLVD/BUFFALO ST",
        "routeIds": [
            "MTA NYCT_S78",
            "MTA NYCT_S79+",
            "MTA NYCT_SIM1",
            "MTA NYCT_SIM1C",
            "MTA NYCT_SIM5",
            "MTA NYCT_SIM6",
            "MTA NYCT_SIM7",
            "MTA NYCT_SIM9",
            "MTA NYCT_SIM10"
        ],
        "wheelchairBoarding": "UNKNOWN"
    },
    {
        "code": "201133",
        "direction": "SW",
        "id": "MTA_201133",
        "lat": 40.552258,
        "locationType": 0,
        "lon": -74.133468,
        "name": "HYLAN BLVD/BAY TERR",
        "routeIds": [
            "MTA NYCT_S78",
            "MTA NYCT_SIM1",
            "MTA NYCT_SIM1C",
            "MTA NYCT_SIM5",
            "MTA NYCT_SIM6",
            "MTA NYCT_SIM7",
            "MTA NYCT_SIM9",
            "MTA NYCT_SIM10"
        ],
        "wheelchairBoarding": "UNKNOWN"
    },
    {
        "code": "201136",
        "direction": "SW",
        "id": "MTA_201136",
        "lat": 40.549433,
        "locationType": 0,
        "lon": -74.137805,
        "name": "HYLAN BLVD/KEEGANS LN",
        "routeIds": [
            "MTA NYCT_S78",
            "MTA NYCT_SIM1",
            "MTA NYCT_SIM1C",
            "MTA NYCT_SIM5",
            "MTA NYCT_SIM6",
            "MTA NYCT_SIM7",
            "MTA NYCT_SIM9",
            "MTA NYCT_SIM10"
        ],
        "wheelchairBoarding": "UNKNOWN"
    },
    {
        "code": "201139",
        "direction": "SW",
        "id": "MTA_201139",
        "lat": 40.545287,
        "locationType": 0,
        "lon": -74.143082,
        "name": "HYLAN BLVD/HILLSIDE TERR",
        "routeIds": [
            "MTA NYCT_S78",
            "MTA NYCT_SIM1",
            "MTA NYCT_SIM1C",
            "MTA NYCT_SIM5",
            "MTA NYCT_SIM6",
            "MTA NYCT_SIM7",
            "MTA NYCT_SIM9",
            "MTA NYCT_SIM10"
        ],
        "wheelchairBoarding": "UNKNOWN"
    },
    {
        "code": "201141",
        "direction": "SW",
        "id": "MTA_201141",
        "lat": 40.542228,
        "locationType": 0,
        "lon": -74.146245,
        "name": "HYLAN BLVD/NELSON AV",
        "routeIds": [
            "MTA NYCT_S54",
            "MTA NYCT_S78",
            "MTA NYCT_S79+",
            "MTA NYCT_SIM1",
            "MTA NYCT_SIM1C",
            "MTA NYCT_SIM7",
            "MTA NYCT_SIM9",
            "MTA NYCT_SIM10"
        ],
        "wheelchairBoarding": "UNKNOWN"
    },
    {
        "code": "201630",
        "direction": "NE",
        "id": "MTA_201630",
        "lat": 40.576815,
        "locationType": 0,
        "lon": -74.103316,
        "name": "HYLAN BLVD/LINCOLN AV",
        "routeIds": [
            "MTA NYCT_S78",
            "MTA NYCT_SIM1",
            "MTA NYCT_SIM1C",
            "MTA NYCT_SIM5",
            "MTA NYCT_SIM6",
            "MTA NYCT_SIM7",
            "MTA NYCT_SIM9",
            "MTA NYCT_SIM10",
            "MTA NYCT_SIM11"
        ],
        "wheelchairBoarding": "UNKNOWN"
    },
    {
        "code": "201680",
        "direction": "SE",
        "id": "MTA_201680",
        "lat": 40.570823,
        "locationType": 0,
        "lon": -74.09053,
        "name": "MIDLAND AV/FATHER CAPODANNO BLVD",
        "routeIds": [
            "MTA NYCT_S51",
            "MTA NYCT_SIM5",
            "MTA NYCT_SIM6",
            "MTA NYCT_SIM9"
        ],
        "wheelchairBoarding": "UNKNOWN"
    },
    {
        "code": "203104",
        "direction": "NE",
        "id": "MTA_203104",
        "lat": 40.586862,
        "locationType": 0,
        "lon": -74.069839,
        "name": "FATHER CAPODANNO BLVD/ATLANTIC AV",
        "routeIds": [
            "MTA NYCT_S51",
            "MTA NYCT_S52",
            "MTA NYCT_SIM5",
            "MTA NYCT_SIM6",
            "MTA NYCT_SIM9"
        ],
        "wheelchairBoarding": "UNKNOWN"
    },
    {
        "code": "203226",
        "direction": "SW",
        "id": "MTA_203226",
        "lat": 40.590146,
        "locationType": 0,
        "lon": -74.066995,
        "name": "FATHER CAPODANNO BLVD/SAND LN",
        "routeIds": [
            "MTA NYCT_S51",
            "MTA NYCT_S52",
            "MTA NYCT_S81",
            "MTA NYCT_SIM5",
            "MTA NYCT_SIM6",
            "MTA NYCT_SIM9"
        ],
        "wheelchairBoarding": "UNKNOWN"
    },
    {
        "code": "203236",
        "direction": "NE",
        "id": "MTA_203236",
        "lat": 40.579436,
        "locationType": 0,
        "lon": -74.077418,
        "name": "FATHER CAPODANNO BLVD/SEAVIEW AV",
        "routeIds": [
            "MTA NYCT_S51",
            "MTA NYCT_S52",
            "MTA NYCT_SIM5",
            "MTA NYCT_SIM6",
            "MTA NYCT_SIM9"
        ],
        "wheelchairBoarding": "UNKNOWN"
    },
    {
        "code": "203399",
        "direction": "NE",
        "id": "MTA_203399",
        "lat": 40.537571,
        "locationType": 0,
        "lon": -74.149984,
        "name": "HYLAN BLVD/ARMSTRONG AV",
        "routeIds": [
            "MTA NYCT_S54",
            "MTA NYCT_S78",
            "MTA NYCT_SIM1",
            "MTA NYCT_SIM1C",
            "MTA NYCT_SIM7",
            "MTA NYCT_SIM9",
            "MTA NYCT_SIM10"
        ],
        "wheelchairBoarding": "UNKNOWN"
    },
    {
        "code": "203426",
        "direction": "NW",
        "id": "MTA_203426",
        "lat": 40.571202,
        "locationType": 0,
        "lon": -74.090898,
        "name": "MIDLAND AV/PATTERSON AV",
        "routeIds": [
            "MTA NYCT_S51",
            "MTA NYCT_S81",
            "MTA NYCT_SIM5",
            "MTA NYCT_SIM6",
            "MTA NYCT_SIM9"
        ],
        "wheelchairBoarding": "UNKNOWN"
    },
    {
        "code": "203431",
        "direction": "NE",
        "id": "MTA_203431",
        "lat": 40.534129,
        "locationType": 0,
        "lon": -74.154024,
        "name": "HYLAN BLVD/RICHMOND AV",
        "routeIds": [
            "MTA NYCT_S78",
            "MTA NYCT_SIM9"
        ],
        "wheelchairBoarding": "UNKNOWN"
    },
    {
        "code": "203634",
        "direction": "SW",
        "id": "MTA_203634",
        "lat": 40.574839,
        "locationType": 0,
        "lon": -74.084779,
        "name": "FATHER CAPODANNO BLVD/GRAHAM BLVD",
        "routeIds": [
            "MTA NYCT_S51",
            "MTA NYCT_S81",
            "MTA NYCT_SIM5",
            "MTA NYCT_SIM6",
            "MTA NYCT_SIM9"
        ],
        "wheelchairBoarding": "UNKNOWN"
    },
    {
        "code": "203696",
        "direction": "SW",
        "id": "MTA_203696",
        "lat": 40.570172,
        "locationType": 0,
        "lon": -74.11024,
        "name": "HYLAN BLVD/CODDINGTON AV",
        "routeIds": [
            "MTA NYCT_SIM1",
            "MTA NYCT_SIM1C",
            "MTA NYCT_SIM5",
            "MTA NYCT_SIM6",
            "MTA NYCT_SIM7",
            "MTA NYCT_SIM9",
            "MTA NYCT_SIM10",
            "MTA NYCT_SIM11"
        ],
        "wheelchairBoarding": "UNKNOWN"
    },
    {
        "code": "250054",
        "direction": "NE",
        "id": "MTA_250054",
        "lat": 40.565114,
        "locationType": 0,
        "lon": -74.114835,
        "name": "HYLAN BLVD/CANNON BLVD",
        "routeIds": [
            "MTA NYCT_SIM1",
            "MTA NYCT_SIM1C",
            "MTA NYCT_SIM5",
            "MTA NYCT_SIM6",
            "MTA NYCT_SIM7",
            "MTA NYCT_SIM9",
            "MTA NYCT_SIM10",
            "MTA NYCT_SIM11"
        ],
        "wheelchairBoarding": "UNKNOWN"
    },
    {
        "code": "400153",
        "direction": "SW",
        "id": "MTA_400153",
        "lat": 40.7294,
        "locationType": 0,
        "lon": -73.993516,
        "name": "BROADWAY/WAVERLY PL",
        "routeIds": [
            "MTA NYCT_M1",
            "MTA NYCT_M55",
            "MTA NYCT_SIM7",
            "MTA NYCT_SIM9",
            "MTA NYCT_SIM33"
        ],
        "wheelchairBoarding": "UNKNOWN"
    },
    {
        "code": "400723",
        "direction": "NE",
        "id": "MTA_400723",
        "lat": 40.733006,
        "locationType": 0,
        "lon": -73.999838,
        "name": "AVENUE OF THE AMERICAS/WAVERLY PL",
        "routeIds": [
            "MTA NYCT_M55",
            "MTA NYCT_SIM1C",
            "MTA NYCT_SIM3C",
            "MTA NYCT_SIM4C",
            "MTA NYCT_SIM7",
            "MTA NYCT_SIM9",
            "MTA NYCT_SIM33",
            "MTA NYCT_SIM33C"
        ],
        "wheelchairBoarding": "UNKNOWN"
    },
    {
        "code": "404132",
        "direction": "NE",
        "id": "MTA_404132",
        "lat": 40.727023,
        "locationType": 0,
        "lon": -74.003348,
        "name": "6 AV/PRINCE ST",
        "routeIds": [
            "MTA NYCT_M21",
            "MTA NYCT_M55",
            "MTA NYCT_SIM1C",
            "MTA NYCT_SIM3C",
            "MTA NYCT_SIM4C",
            "MTA NYCT_SIM7",
            "MTA NYCT_SIM9",
            "MTA NYCT_SIM33",
            "MTA NYCT_SIM33C"
        ],
        "wheelchairBoarding": "UNKNOWN"
    },
    {
        "code": "404197",
        "direction": "S",
        "id": "MTA_404197",
        "lat": 40.733849,
        "locationType": 0,
        "lon": -73.991058,
        "name": "BROADWAY/E 13 ST",
        "routeIds": [
            "MTA NYCT_SIM7",
            "MTA NYCT_SIM9",
            "MTA NYCT_SIM33",
            "MTA NYCT_X27",
            "MTA NYCT_X28"
        ],
        "wheelchairBoarding": "UNKNOWN"
    },
    {
        "code": "404294",
        "direction": "W",
        "id": "MTA_404294",
        "lat": 40.729001,
        "locationType": 0,
        "lon": -74.009391,
        "name": "WEST HOUSTON ST/WASHINGTON  ST",
        "routeIds": [
            "MTA NYCT_SIM7",
            "MTA NYCT_SIM9"
        ],
        "wheelchairBoarding": "UNKNOWN"
    },
    {
        "code": "404931",
        "direction": "NW",
        "id": "MTA_404931",
        "lat": 40.725761,
        "locationType": 0,
        "lon": -73.997446,
        "name": "WEST HOUSTON ST/MERCER ST",
        "routeIds": [
            "MTA NYCT_SIM7",
            "MTA NYCT_SIM9",
            "MTA NYCT_SIM33"
        ],
        "wheelchairBoarding": "UNKNOWN"
    },
    {
        "code": "404940",
        "direction": "W",
        "id": "MTA_404940",
        "lat": 40.728569,
        "locationType": 0,
        "lon": -74.004612,
        "name": "WEST HOUSTON ST/VARICK ST",
        "routeIds": [
            "MTA NYCT_SIM7",
            "MTA NYCT_SIM9",
            "MTA NYCT_SIM33"
        ],
        "wheelchairBoarding": "UNKNOWN"
    },
    {
        "code": "404990",
        "direction": "E",
        "id": "MTA_404990",
        "lat": 40.725908,
        "locationType": 0,
        "lon": -74.00874,
        "name": "SPRING ST/GREENWICH ST",
        "routeIds": [
            "MTA NYCT_M21",
            "MTA NYCT_SIM7",
            "MTA NYCT_SIM9"
        ],
        "wheelchairBoarding": "UNKNOWN"
    },
    {
        "code": "405017",
        "direction": "N",
        "id": "MTA_405017",
        "lat": 40.709633,
        "locationType": 0,
        "lon": -74.014694,
        "name": "WEST ST/CARLISLE ST",
        "routeIds": [
            "MTA NYCT_SIM7",
            "MTA NYCT_SIM9",
            "MTA NYCT_SIM33"
        ],
        "wheelchairBoarding": "UNKNOWN"
    },
    {
        "code": "405136",
        "direction": "N",
        "id": "MTA_405136",
        "lat": 40.720234,
        "locationType": 0,
        "lon": -74.011966,
        "name": "WEST ST/NORTH MOORE ST",
        "routeIds": [
            "MTA NYCT_SIM7",
            "MTA NYCT_SIM9",
            "MTA NYCT_SIM33"
        ],
        "wheelchairBoarding": "UNKNOWN"
    },
    {
        "code": "405305",
        "direction": "S",
        "id": "MTA_405305",
        "lat": 40.720253,
        "locationType": 0,
        "lon": -74.012307,
        "name": "WEST ST/NORTH MOORE ST",
        "routeIds": [
            "MTA NYCT_SIM7",
            "MTA NYCT_SIM9",
            "MTA NYCT_SIM33"
        ],
        "wheelchairBoarding": "UNKNOWN"
    },
    {
        "code": "805168",
        "direction": "NE",
        "id": "MTA_805168",
        "lat": 40.570271,
        "locationType": 0,
        "lon": -74.109771,
        "name": "HYLAN BLVD/NEW DORP LN",
        "routeIds": [
            "MTA NYCT_S79+",
            "MTA NYCT_SIM1",
            "MTA NYCT_SIM1C",
            "MTA NYCT_SIM5",
            "MTA NYCT_SIM6",
            "MTA NYCT_SIM7",
            "MTA NYCT_SIM9",
            "MTA NYCT_SIM10",
            "MTA NYCT_SIM11"
        ],
        "wheelchairBoarding": "UNKNOWN"
    },
    {
        "code": "903013",
        "direction": "SE",
        "id": "MTA_903013",
        "lat": 40.714123,
        "locationType": 0,
        "lon": -74.014863,
        "name": "VESEY ST/WEST ST",
        "routeIds": [
            "MTA NYCT_SIM7",
            "MTA NYCT_SIM9",
            "MTA NYCT_SIM33"
        ],
        "wheelchairBoarding": "UNKNOWN"
    },
    {
        "code": "903017",
        "direction": "NE",
        "id": "MTA_903017",
        "lat": 40.73742,
        "locationType": 0,
        "lon": -73.996705,
        "name": "AVENUE OF THE AMERICAS/W 14 ST",
        "routeIds": [
            "MTA NYCT_SIM7",
            "MTA NYCT_SIM9",
            "MTA NYCT_SIM33"
        ],
        "wheelchairBoarding": "UNKNOWN"
    },
    {
        "code": "905051",
        "direction": "SE",
        "id": "MTA_905051",
        "lat": 40.598827,
        "locationType": 0,
        "lon": -74.063766,
        "name": "LILY POND AV/McCLEAN AV",
        "routeIds": [
            "MTA NYCT_SIM5",
            "MTA NYCT_SIM6",
            "MTA NYCT_SIM9"
        ],
        "wheelchairBoarding": "UNKNOWN"
    },
    {
        "code": "905196",
        "direction": "N",
        "id": "MTA_905196",
        "lat": 40.716422,
        "locationType": 0,
        "lon": -74.012858,
        "name": "WEST ST/WARREN ST",
        "routeIds": [
            "MTA NYCT_SIM7",
            "MTA NYCT_SIM9",
            "MTA NYCT_SIM33"
        ],
        "wheelchairBoarding": "UNKNOWN"
    }
]