[
    {
        "code": "100017",
        "direction": "NE",
        "id": "MTA_100017",
        "lat": 40.876836,
        "locationType": 0,
        "lon": -73.88971,
        "name": "PAUL AV/W 205 ST",
        "routeIds": [
            "MTA NYCT_BX10",
            "MTA NYCT_BX28",
            "MTA NYCT_BX38"
        ],
        "wheelchairBoarding": "UNKNOWN"
    },
    {
        "code": "100018",
        "direction": "E",
        "id": "MTA_100018",
        "lat": 40.880392,
        "locationType": 0,
        "lon": -73.886081,
        "name": "PAUL AV/WEST MOSHOLU PKWY SOUTH",
        "routeIds": [
            "MTA NYCT_BX10",
            "MTA NYCT_BX28",
            "MTA NYCT_BX38"
        ],
        "wheelchairBoarding": "UNKNOWN"
    },
    {
        "code": "100053",
        "direction": "NE",
        "id": "MTA_100053",
        "lat": 40.877992,
        "locationType": 0,
        "lon": -73.884717,
        "name": "GRAND CONCOURSE/EAST MOSHOLU PKWY SOUTH",
        "routeIds": [
            "MTA NYCT_BX1",
            "MTA NYCT_BX2",
            "MTA NYCT_BX28",
            "MTA NYCT_BX38"
        ],
        "wheelchairBoarding": "UNKNOWN"
    },
    {
        "code": "100054",
        "direction": "NW",
        "id": "MTA_100054",
        "lat": 40.879494,
        "locationType": 0,
        "lon": -73.8856,
        "name": "EAST MOSHOLU PKWY SOUTH/JEROME AV",
        "routeIds": [
            "MTA NYCT_BX1",
            "MTA NYCT_BX2",
            "MTA NYCT_BX28",
            "MTA NYCT_BX38"
        ],
        "wheelchairBoarding": "UNKNOWN"
    },
    {
        "code": "100080",
        "direction": "SW",
        "id": "MTA_100080",
        "lat": 40.874629,
        "locationType": 0,
        "lon": -73.891539,
        "name": "PAUL AV/BEDFORD PARK BLVD",
        "routeIds": [
            "MTA NYCT_BX10",
            "MTA NYCT_BX22",
            "MTA NYCT_BX25",
            "MTA NYCT_BX26",
            "MTA NYCT_BX28",
            "MTA NYCT_BX38"
        ],
        "wheelchairBoarding": "UNKNOWN"
    },
    {
        "code": "100573",
        "direction": "NW",
        "id": "MTA_100573",
        "lat": 40.867294,
        "locationType": 0,
        "lon": -73.896876,
        "name": "EAST KINGSBRIDGE RD/MORRIS AV",
        "routeIds": [
            "MTA NYCT_BX22",
            "MTA NYCT_BX28",
            "MTA NYCT_BX38"
        ],
        "wheelchairBoarding": "UNKNOWN"
    },
    {
        "code": "100631",
        "direction": "SE",
        "id": "MTA_100631",
        "lat": 40.86585,
        "locationType": 0,
        "lon": -73.894274,
        "name": "EAST KINGSBRIDGE RD/GRAND CONCOURSE",
        "routeIds": [
            "MTA NYCT_BX9",
            "MTA NYCT_BX22",
            "MTA NYCT_BX28",
            "MTA NYCT_BX38"
        ],
        "wheelchairBoarding": "UNKNOWN"
    },
    {
        "code": "100652",
        "direction": "N",
        "id": "MTA_100652",
        "lat": 40.877311,
        "locationType": 0,
        "lon": -73.879677,
        "name": "BAINBRIDGE AV/RESERVOIR OVAL E",
        "routeIds": [
            "MTA NYCT_BX10",
            "MTA NYCT_BX16",
            "MTA NYCT_BX28",
            "MTA NYCT_BX34",
            "MTA NYCT_BX38"
        ],
        "wheelchairBoarding": "UNKNOWN"
    },
    {
        "code": "100729",
        "direction": "S",
        "id": "MTA_100729",
        "lat": 40.880732,
        "locationType": 0,
        "lon": -73.878634,
        "name": "BAINBRIDGE AV/EAST GUN HILL RD",
        "routeIds": [
            "MTA NYCT_BX10",
            "MTA NYCT_BX16",
            "MTA NYCT_BX28",
            "MTA NYCT_BX34",
            "MTA NYCT_BX38"
        ],
        "wheelchairBoarding": "UNKNOWN"
    },
    {
        "code": "100730",
        "direction": "S",
        "id": "MTA_100730",
        "lat": 40.879332,
        "locationType": 0,
        "lon": -73.879113,
        "name": "BAINBRIDGE AV/E 210 ST",
        "routeIds": [
            "MTA NYCT_BX10",
            "MTA NYCT_BX16",
            "MTA NYCT_BX28",
            "MTA NYCT_BX34",
            "MTA NYCT_BX38",
            "MTABC_BXM4"
        ],
        "wheelchairBoarding": "UNKNOWN"
    },
    {
        "code": "100731",
        "direction": "S",
        "id": "MTA_100731",
        "lat": 40.87709,
        "locationType": 0,
        "lon": -73.879774,
        "name": "BAINBRIDGE AV/VAN CORTLANDT AV EAST",
        "routeIds": [
            "MTA NYCT_BX10",
            "MTA NYCT_BX16",
            "MTA NYCT_BX28",
            "MTA NYCT_BX34",
            "MTA NYCT_BX38",
            "MTABC_BXM4"
        ],
        "wheelchairBoarding": "UNKNOWN"
    },
    {
        "code": "101530",
        "direction": "SW",
        "id": "MTA_101530",
        "lat": 40.864178,
        "locationType": 0,
        "lon": -73.894444,
        "name": "VALENTINE AV/E 192 ST",
        "routeIds": [
            "MTA NYCT_BX28",
            "MTA NYCT_BX38"
        ],
        "wheelchairBoarding": "UNKNOWN"
    },
    {
        "code": "101687",
        "direction": "NE",
        "id": "MTA_101687",
        "lat": 40.869163,
        "locationType": 0,
        "lon": -73.896059,
        "name": "JEROME AV/E 196 ST",
        "routeIds": [
            "MTA NYCT_BX28",
            "MTA NYCT_BX38"
        ],
        "wheelchairBoarding": "UNKNOWN"
    },
    {
        "code": "101688",
        "direction": "NE",
        "id": "MTA_101688",
        "lat": 40.870974,
        "locationType": 0,
        "lon": -73.893892,
        "name": "JEROME AV/MORRIS AV",
        "routeIds": [
            "MTA NYCT_BX28",
            "MTA NYCT_BX38"
        ],
        "wheelchairBoarding": "UNKNOWN"
    },
    {
        "code": "101713",
        "direction": "E",
        "id": "MTA_101713",
        "lat": 40.866986,
        "locationType": 0,
        "lon": -73.837144,
        "name": "BARTOW AV/GUNTHER AV",
        "routeIds": [
            "MTA NYCT_BX25",
            "MTA NYCT_BX26",
            "MTA NYCT_BX28",
            "MTA NYCT_BX38"
        ],
        "wheelchairBoarding": "UNKNOWN"
    },
    {
        "code": "101714",
        "direction": "E",
        "id": "MTA_101714",
        "lat": 40.86788,
        "locationType": 0,
        "lon": -73.834403,
        "name": "BARTOW AV/ELY AV",
        "routeIds": [
            "MTA NYCT_BX25",
            "MTA NYCT_BX26",
            "MTA NYCT_BX28",
            "MTA NYCT_BX38"
        ],
        "wheelchairBoarding": "UNKNOWN"
    },
    {
        "code": "101716",
        "direction": "NW",
        "id": "MTA_101716",
        "lat": 40.870653,
        "locationType": 0,
        "lon": -73.832575,
        "name": "BAYCHESTER AV/ALDRICH ST",
        "routeIds": [
            "MTABC_BX23",
            "MTA NYCT_BX25",
            "MTA NYCT_BX28",
            "MTA NYCT_BX30",
            "MTA NYCT_BX38",
            "MTABC_Q50"
        ],
        "wheelchairBoarding": "UNKNOWN"
    },
    {
        "code": "101717",
        "direction": "N",
        "id": "MTA_101717",
        "lat": 40.876369,
        "locationType": 0,
        "lon": -73.833678,
        "name": "BAYCHESTER AV/DONIZETTI PL",
        "routeIds": [
            "MTABC_BX23",
            "MTA NYCT_BX25",
            "MTA NYCT_BX28",
            "MTA NYCT_BX30",
            "MTA NYCT_BX38",
            "MTABC_Q50"
        ],
        "wheelchairBoarding": "UNKNOWN"
    },
    {
        "code": "101718",
        "direction": "NE",
        "id": "MTA_101718",
        "lat": 40.878523,
        "locationType": 0,
        "lon": -73.832844,
        "name": "BAYCHESTER AV/DARROW PL",
        "routeIds": [
            "MTABC_BX23",
            "MTA NYCT_BX25",
            "MTA NYCT_BX28",
            "MTA NYCT_BX30",
            "MTA NYCT_BX38",
            "MTABC_Q50"
        ],
        "wheelchairBoarding": "UNKNOWN"
    },
    {
        "code": "101719",
        "direction": "S",
        "id": "MTA_101719",
        "lat": 40.87787,
        "locationType": 0,
        "lon": -73.829667,
        "name": "DREISER LOOP/CO-OP CITY BLVD",
        "routeIds": [
            "MTABC_BX23",
            "MTA NYCT_BX25",
            "MTA NYCT_BX28",
            "MTA NYCT_BX38"
        ],
        "wheelchairBoarding": "UNKNOWN"
    },
    {
        "code": "101721",
        "direction": "NE",
        "id": "MTA_101721",
        "lat": 40.876987,
        "locationType": 0,
        "lon": -73.828071,
        "name": "DREISER LOOP/DEBS PL",
        "routeIds": [
            "MTABC_BX23",
            "MTA NYCT_BX25",
            "MTA NYCT_BX28",
            "MTA NYCT_BX30",
            "MTA NYCT_BX38"
        ],
        "wheelchairBoarding": "UNKNOWN"
    },
    {
        "code": "101722",
        "direction": "NW",
        "id": "MTA_101722",
        "lat": 40.87834,
        "locationType": 0,
        "lon": -73.828057,
        "name": "DREISER LOOP/CO-OP CITY BLVD",
        "routeIds": [
            "MTABC_BX23",
            "MTA NYCT_BX25",
            "MTA NYCT_BX28",
            "MTA NYCT_BX30",
            "MTA NYCT_BX38"
        ],
        "wheelchairBoarding": "UNKNOWN"
    },
    {
        "code": "101723",
        "direction": "E",
        "id": "MTA_101723",
        "lat": 40.879403,
        "locationType": 0,
        "lon": -73.824941,
        "name": "CO-OP CITY BLVD/CARVER LOOP 2",
        "routeIds": [
            "MTABC_BX23",
            "MTA NYCT_BX25",
            "MTA NYCT_BX28",
            "MTA NYCT_BX30",
            "MTA NYCT_BX38",
            "MTABC_BXM7",
            "MTABC_Q50"
        ],
        "wheelchairBoarding": "UNKNOWN"
    },
    {
        "code": "101724",
        "direction": "S",
        "id": "MTA_101724",
        "lat": 40.873809,
        "locationType": 0,
        "lon": -73.824572,
        "name": "CO-OP CITY BLVD/BELLAMY LOOP N",
        "routeIds": [
            "MTABC_BX23",
            "MTA NYCT_BX25",
            "MTA NYCT_BX28",
            "MTA NYCT_BX38",
            "MTABC_BXM7",
            "MTABC_Q50"
        ],
        "wheelchairBoarding": "UNKNOWN"
    },
    {
        "code": "101725",
        "direction": "SW",
        "id": "MTA_101725",
        "lat": 40.871926,
        "locationType": 0,
        "lon": -73.824762,
        "name": "CO-OP CITY BLVD/BELLAMY LOOP S",
        "routeIds": [
            "MTABC_BX23",
            "MTA NYCT_BX25",
            "MTA NYCT_BX28",
            "MTA NYCT_BX38",
            "MTABC_Q50"
        ],
        "wheelchairBoarding": "UNKNOWN"
    },
    {
        "code": "101726",
        "direction": "W",
        "id": "MTA_101726",
        "lat": 40.870598,
        "locationType": 0,
        "lon": -73.82623,
        "name": "ASCH LOOP/CO-OP CITY BLVD",
        "routeIds": [
            "MTABC_BX23",
            "MTA NYCT_BX26",
            "MTA NYCT_BX28",
            "MTA NYCT_BX30"
        ],
        "wheelchairBoarding": "UNKNOWN"
    },
    {
        "code": "101727",
        "direction": "W",
        "id": "MTA_101727",
        "lat": 40.871472,
        "locationType": 0,
        "lon": -73.830409,
        "name": "ASCH LOOP/ALCOTT PL",
        "routeIds": [
            "MTABC_BX23",
            "MTA NYCT_BX26",
            "MTA NYCT_BX28",
            "MTA NYCT_BX30",
            "MTABC_BXM7"
        ],
        "wheelchairBoarding": "UNKNOWN"
    },
    {
        "code": "101728",
        "direction": "SE",
        "id": "MTA_101728",
        "lat": 40.869291,
        "locationType": 0,
        "lon": -73.830611,
        "name": "ASCH LOOP/BARTOW AV",
        "routeIds": [
            "MTABC_BX23",
            "MTA NYCT_BX26",
            "MTA NYCT_BX28",
            "MTA NYCT_BX30"
        ],
        "wheelchairBoarding": "UNKNOWN"
    },
    {
        "code": "101729",
        "direction": "SW",
        "id": "MTA_101729",
        "lat": 40.865445,
        "locationType": 0,
        "lon": -73.823763,
        "name": "HUTCHINSON RIVER PKWY/EINSTEIN LOOP NORTH",
        "routeIds": [
            "MTABC_BX23",
            "MTA NYCT_BX26",
            "MTA NYCT_BX28",
            "MTA NYCT_BX30",
            "MTABC_Q50"
        ],
        "wheelchairBoarding": "UNKNOWN"
    },
    {
        "code": "101730",
        "direction": "SW",
        "id": "MTA_101730",
        "lat": 40.864524,
        "locationType": 0,
        "lon": -73.824593,
        "name": "HUTCHINSON RIVER PKWY/EINSTEIN LOOP SOUTH",
        "routeIds": [
            "MTABC_BX23",
            "MTA NYCT_BX26",
            "MTA NYCT_BX28",
            "MTA NYCT_BX30",
            "MTABC_Q50"
        ],
        "wheelchairBoarding": "UNKNOWN"
    },
    {
        "code": "101731",
        "direction": "SE",
        "id": "MTA_101731",
        "lat": 40.862332,
        "locationType": 0,
        "lon": -73.825571,
        "name": "HUNTER AV/BOLLER AV",
        "routeIds": [
            "MTABC_BX23",
            "MTA NYCT_BX26",
            "MTA NYCT_BX28",
            "MTA NYCT_BX30",
            "MTABC_Q50"
        ],
        "wheelchairBoarding": "UNKNOWN"
    },
    {
        "code": "101732",
        "direction": "E",
        "id": "MTA_101732",
        "lat": 40.860826,
        "locationType": 0,
        "lon": -73.822669,
        "name": "ERSKINE PL/EARHART LA",
        "routeIds": [
            "MTA NYCT_BX26",
            "MTA NYCT_BX28",
            "MTA NYCT_BX30"
        ],
        "wheelchairBoarding": "UNKNOWN"
    },
    {
        "code": "101734",
        "direction": "NW",
        "id": "MTA_101734",
        "lat": 40.861114,
        "locationType": 0,
        "lon": -73.822549,
        "name": "EARHART LA/ERSKINE PL",
        "routeIds": [
            "MTABC_BX23",
            "MTA NYCT_BX26",
            "MTA NYCT_BX28",
            "MTA NYCT_BX30",
            "MTABC_Q50"
        ],
        "wheelchairBoarding": "UNKNOWN"
    },
    {
        "code": "101735",
        "direction": "NW",
        "id": "MTA_101735",
        "lat": 40.861998,
        "locationType": 0,
        "lon": -73.824444,
        "name": "HUNTER AV/EARHART LA",
        "routeIds": [
            "MTABC_BX23",
            "MTA NYCT_BX26",
            "MTA NYCT_BX28",
            "MTA NYCT_BX30",
            "MTABC_Q50"
        ],
        "wheelchairBoarding": "UNKNOWN"
    },
    {
        "code": "101737",
        "direction": "NE",
        "id": "MTA_101737",
        "lat": 40.865014,
        "locationType": 0,
        "lon": -73.82388,
        "name": "HUTCHINSON RIVER PKWY EAST/EINSTEIN LOOP SOUTH",
        "routeIds": [
            "MTABC_BX23",
            "MTA NYCT_BX26",
            "MTA NYCT_BX28",
            "MTA NYCT_BX30",
            "MTABC_Q50"
        ],
        "wheelchairBoarding": "UNKNOWN"
    },
    {
        "code": "101738",
        "direction": "NE",
        "id": "MTA_101738",
        "lat": 40.866014,
        "locationType": 0,
        "lon": -73.822984,
        "name": "HUTCHINSON RIVER PKWY EAST/EINSTEIN LOOP NORTH",
        "routeIds": [
            "MTABC_BX23",
            "MTA NYCT_BX26",
            "MTA NYCT_BX28",
            "MTA NYCT_BX30",
            "MTABC_Q50"
        ],
        "wheelchairBoarding": "UNKNOWN"
    },
    {
        "code": "101740",
        "direction": "NW",
        "id": "MTA_101740",
        "lat": 40.869391,
        "locationType": 0,
        "lon": -73.830561,
        "name": "ASCH LOOP/BARTOW AV",
        "routeIds": [
            "MTABC_BX23",
            "MTA NYCT_BX26",
            "MTA NYCT_BX28",
            "MTA NYCT_BX30"
        ],
        "wheelchairBoarding": "UNKNOWN"
    },
    {
        "code": "101742",
        "direction": "SE",
        "id": "MTA_101742",
        "lat": 40.870438,
        "locationType": 0,
        "lon": -73.826121,
        "name": "ASCH LOOP/CO-OP CITY BLVD",
        "routeIds": [
            "MTABC_BX23",
            "MTA NYCT_BX26",
            "MTA NYCT_BX28",
            "MTA NYCT_BX30"
        ],
        "wheelchairBoarding": "UNKNOWN"
    },
    {
        "code": "101743",
        "direction": "N",
        "id": "MTA_101743",
        "lat": 40.874344,
        "locationType": 0,
        "lon": -73.824318,
        "name": "CO-OP CITY BLVD/BELLAMY LOOP NORTH",
        "routeIds": [
            "MTABC_BX23",
            "MTA NYCT_BX25",
            "MTA NYCT_BX28",
            "MTA NYCT_BX38",
            "MTABC_BXM7",
            "MTABC_Q50"
        ],
        "wheelchairBoarding": "UNKNOWN"
    },
    {
        "code": "101744",
        "direction": "W",
        "id": "MTA_101744",
        "lat": 40.87994,
        "locationType": 0,
        "lon": -73.823842,
        "name": "CO-OP CITY BLVD/PEARTREE AV",
        "routeIds": [
            "MTABC_BX23",
            "MTA NYCT_BX25",
            "MTA NYCT_BX28",
            "MTA NYCT_BX30",
            "MTA NYCT_BX38",
            "MTABC_Q50"
        ],
        "wheelchairBoarding": "UNKNOWN"
    },
    {
        "code": "101745",
        "direction": "W",
        "id": "MTA_101745",
        "lat": 40.879271,
        "locationType": 0,
        "lon": -73.825859,
        "name": "CO-OP CITY BLVD/CARVER LOOP  #1",
        "routeIds": [
            "MTABC_BX23",
            "MTA NYCT_BX25",
            "MTA NYCT_BX28",
            "MTA NYCT_BX30",
            "MTA NYCT_BX38",
            "MTABC_BXM7",
            "MTABC_Q50"
        ],
        "wheelchairBoarding": "UNKNOWN"
    },
    {
        "code": "101746",
        "direction": "S",
        "id": "MTA_101746",
        "lat": 40.878033,
        "locationType": 0,
        "lon": -73.828228,
        "name": "DREISER LOOP/CO-OP CITY BLVD",
        "routeIds": [
            "MTABC_BX23",
            "MTA NYCT_BX25",
            "MTA NYCT_BX28",
            "MTA NYCT_BX30",
            "MTA NYCT_BX38"
        ],
        "wheelchairBoarding": "UNKNOWN"
    },
    {
        "code": "101747",
        "direction": "SW",
        "id": "MTA_101747",
        "lat": 40.876768,
        "locationType": 0,
        "lon": -73.828427,
        "name": "DREISER LOOP/DEBS PL",
        "routeIds": [
            "MTABC_BX23",
            "MTA NYCT_BX25",
            "MTA NYCT_BX28",
            "MTA NYCT_BX30",
            "MTA NYCT_BX38"
        ],
        "wheelchairBoarding": "UNKNOWN"
    },
    {
        "code": "101749",
        "direction": "N",
        "id": "MTA_101749",
        "lat": 40.878092,
        "locationType": 0,
        "lon": -73.829435,
        "name": "DREISER LOOP/CO-OP CITY BLVD",
        "routeIds": [
            "MTABC_BX23",
            "MTA NYCT_BX25",
            "MTA NYCT_BX28",
            "MTA NYCT_BX30",
            "MTA NYCT_BX38"
        ],
        "wheelchairBoarding": "UNKNOWN"
    },
    {
        "code": "101750",
        "direction": "SW",
        "id": "MTA_101750",
        "lat": 40.878629,
        "locationType": 0,
        "lon": -73.833054,
        "name": "BAYCHESTER AV/DARROW PL",
        "routeIds": [
            "MTABC_BX23",
            "MTA NYCT_BX25",
            "MTA NYCT_BX28",
            "MTA NYCT_BX30",
            "MTA NYCT_BX38",
            "MTABC_Q50"
        ],
        "wheelchairBoarding": "UNKNOWN"
    },
    {
        "code": "101752",
        "direction": "SE",
        "id": "MTA_101752",
        "lat": 40.869901,
        "locationType": 0,
        "lon": -73.832508,
        "name": "BAYCHESTER AV/ALDRICH ST",
        "routeIds": [
            "MTABC_BX23",
            "MTA NYCT_BX25",
            "MTA NYCT_BX26",
            "MTA NYCT_BX28",
            "MTA NYCT_BX30",
            "MTA NYCT_BX38",
            "MTABC_Q50"
        ],
        "wheelchairBoarding": "UNKNOWN"
    },
    {
        "code": "101779",
        "direction": "SW",
        "id": "MTA_101779",
        "lat": 40.871238,
        "locationType": 0,
        "lon": -73.89348,
        "name": "JEROME AV/MORRIS AV",
        "routeIds": [
            "MTA NYCT_BX28",
            "MTA NYCT_BX38"
        ],
        "wheelchairBoarding": "UNKNOWN"
    },
    {
        "code": "101780",
        "direction": "SW",
        "id": "MTA_101780",
        "lat": 40.869346,
        "locationType": 0,
        "lon": -73.896007,
        "name": "JEROME AV/E 196 ST",
        "routeIds": [
            "MTA NYCT_BX28",
            "MTA NYCT_BX38"
        ],
        "wheelchairBoarding": "UNKNOWN"
    },
    {
        "code": "101781",
        "direction": "SW",
        "id": "MTA_101781",
        "lat": 40.867595,
        "locationType": 0,
        "lon": -73.897384,
        "name": "JEROME AV/WEST KINGSBRIDGE RD",
        "routeIds": [
            "MTA NYCT_BX28",
            "MTA NYCT_BX32",
            "MTA NYCT_BX38"
        ],
        "wheelchairBoarding": "UNKNOWN"
    },
    {
        "code": "101861",
        "direction": "SE",
        "id": "MTA_101861",
        "lat": 40.880021,
        "locationType": 0,
        "lon": -73.876415,
        "name": "EAST GUN HILL RD/TRYON AV",
        "routeIds": [
            "MTA NYCT_BX28",
            "MTA NYCT_BX38"
        ],
        "wheelchairBoarding": "UNKNOWN"
    },
    {
        "code": "101863",
        "direction": "E",
        "id": "MTA_101863",
        "lat": 40.878753,
        "locationType": 0,
        "lon": -73.873097,
        "name": "EAST GUN HILL RD/HULL AV",
        "routeIds": [
            "MTA NYCT_BX28",
            "MTA NYCT_BX38"
        ],
        "wheelchairBoarding": "UNKNOWN"
    },
    {
        "code": "101866",
        "direction": "E",
        "id": "MTA_101866",
        "lat": 40.877136,
        "locationType": 0,
        "lon": -73.865806,
        "name": "EAST GUN HILL RD/WHITE PLAINS RD",
        "routeIds": [
            "MTA NYCT_BX28",
            "MTA NYCT_BX38"
        ],
        "wheelchairBoarding": "UNKNOWN"
    },
    {
        "code": "101867",
        "direction": "E",
        "id": "MTA_101867",
        "lat": 40.876006,
        "locationType": 0,
        "lon": -73.862295,
        "name": "EAST GUN HILL RD/BARNES AV",
        "routeIds": [
            "MTA NYCT_BX28",
            "MTA NYCT_BX38"
        ],
        "wheelchairBoarding": "UNKNOWN"
    },
    {
        "code": "101868",
        "direction": "E",
        "id": "MTA_101868",
        "lat": 40.875384,
        "locationType": 0,
        "lon": -73.860207,
        "name": "EAST GUN HILL RD/BRONXWOOD AV",
        "routeIds": [
            "MTA NYCT_BX28",
            "MTA NYCT_BX30",
            "MTA NYCT_BX38"
        ],
        "wheelchairBoarding": "UNKNOWN"
    },
    {
        "code": "101869",
        "direction": "E",
        "id": "MTA_101869",
        "lat": 40.874562,
        "locationType": 0,
        "lon": -73.857673,
        "name": "EAST GUN HILL RD/PAULDING AV",
        "routeIds": [
            "MTA NYCT_BX28",
            "MTA NYCT_BX38"
        ],
        "wheelchairBoarding": "UNKNOWN"
    },
    {
        "code": "101871",
        "direction": "E",
        "id": "MTA_101871",
        "lat": 40.873109,
        "locationType": 0,
        "lon": -73.853148,
        "name": "EAST GUN HILL RD/HERING AV",
        "routeIds": [
            "MTA NYCT_BX28",
            "MTA NYCT_BX38"
        ],
        "wheelchairBoarding": "UNKNOWN"
    },
    {
        "code": "101872",
        "direction": "E",
        "id": "MTA_101872",
        "lat": 40.872503,
        "locationType": 0,
        "lon": -73.851272,
        "name": "EAST GUN HILL RD/PEARSALL AV",
        "routeIds": [
            "MTA NYCT_BX28",
            "MTA NYCT_BX38"
        ],
        "wheelchairBoarding": "UNKNOWN"
    },
    {
        "code": "101873",
        "direction": "E",
        "id": "MTA_101873",
        "lat": 40.871794,
        "locationType": 0,
        "lon": -73.849,
        "name": "EAST GUN HILL RD/BURKE AV",
        "routeIds": [
            "MTA NYCT_BX28",
            "MTA NYCT_BX38"
        ],
        "wheelchairBoarding": "UNKNOWN"
    },
    {
        "code": "101875",
        "direction": "SE",
        "id": "MTA_101875",
        "lat": 40.869944,
        "locationType": 0,
        "lon": -73.845334,
        "name": "EAST GUN HILL RD/DEWITT PL",
        "routeIds": [
            "MTA NYCT_BX28",
            "MTA NYCT_BX38",
            "MTA NYCT_BX90"
        ],
        "wheelchairBoarding": "UNKNOWN"
    },
    {
        "code": "101876",
        "direction": "SE",
        "id": "MTA_101876",
        "lat": 40.868531,
        "locationType": 0,
        "lon": -73.842619,
        "name": "EAST GUN HILL RD/EASTCHESTER RD",
        "routeIds": [
            "MTA NYCT_BX28",
            "MTA NYCT_BX38"
        ],
        "wheelchairBoarding": "UNKNOWN"
    },
    {
        "code": "101924",
        "direction": "NW",
        "id": "MTA_101924",
        "lat": 40.868414,
        "locationType": 0,
        "lon": -73.842234,
        "name": "EAST GUN HILL RD/EASTCHESTER RD",
        "routeIds": [
            "MTA NYCT_BX28",
            "MTA NYCT_BX38"
        ],
        "wheelchairBoarding": "UNKNOWN"
    },
    {
        "code": "101927",
        "direction": "NW",
        "id": "MTA_101927",
        "lat": 40.87161,
        "locationType": 0,
        "lon": -73.848368,
        "name": "EAST GUN HILL RD/BURKE AV",
        "routeIds": [
            "MTA NYCT_BX28",
            "MTA NYCT_BX38"
        ],
        "wheelchairBoarding": "UNKNOWN"
    },
    {
        "code": "101928",
        "direction": "W",
        "id": "MTA_101928",
        "lat": 40.872806,
        "locationType": 0,
        "lon": -73.851964,
        "name": "EAST GUN HILL RD/GIVAN AV",
        "routeIds": [
            "MTA NYCT_BX28",
            "MTA NYCT_BX38"
        ],
        "wheelchairBoarding": "UNKNOWN"
    },
    {
        "code": "101929",
        "direction": "W",
        "id": "MTA_101929",
        "lat": 40.873478,
        "locationType": 0,
        "lon": -73.854028,
        "name": "EAST GUN HILL RD/BOSTON RD",
        "routeIds": [
            "MTA NYCT_BX28",
            "MTA NYCT_BX38"
        ],
        "wheelchairBoarding": "UNKNOWN"
    },
    {
        "code": "101931",
        "direction": "W",
        "id": "MTA_101931",
        "lat": 40.874873,
        "locationType": 0,
        "lon": -73.858386,
        "name": "EAST GUN HILL RD/PAULDING AV",
        "routeIds": [
            "MTA NYCT_BX28",
            "MTA NYCT_BX38"
        ],
        "wheelchairBoarding": "UNKNOWN"
    },
    {
        "code": "101933",
        "direction": "W",
        "id": "MTA_101933",
        "lat": 40.876157,
        "locationType": 0,
        "lon": -73.862529,
        "name": "EAST GUN HILL RD/BARNES AV",
        "routeIds": [
            "MTA NYCT_BX28",
            "MTA NYCT_BX38"
        ],
        "wheelchairBoarding": "UNKNOWN"
    },
    {
        "code": "102229",
        "direction": "NE",
        "id": "MTA_102229",
        "lat": 40.872927,
        "locationType": 0,
        "lon": -73.880542,
        "name": "BAINBRIDGE AV/EAST MOSHOLU PKWY NORTH",
        "routeIds": [
            "MTA NYCT_BX28",
            "MTA NYCT_BX34",
            "MTA NYCT_BX38"
        ],
        "wheelchairBoarding": "UNKNOWN"
    },
    {
        "code": "102230",
        "direction": "NE",
        "id": "MTA_102230",
        "lat": 40.873571,
        "locationType": 0,
        "lon": -73.87929,
        "name": "BAINBRIDGE AV/E 204 ST",
        "routeIds": [
            "MTA NYCT_BX28",
            "MTA NYCT_BX34"
        ],
        "wheelchairBoarding": "UNKNOWN"
    },
    {
        "code": "102260",
        "direction": "SW",
        "id": "MTA_102260",
        "lat": 40.872951,
        "locationType": 0,
        "lon": -73.880635,
        "name": "BAINBRIDGE AV/EAST MOSHOLU PKWY NORTH",
        "routeIds": [
            "MTA NYCT_BX28",
            "MTA NYCT_BX34",
            "MTA NYCT_BX38"
        ],
        "wheelchairBoarding": "UNKNOWN"
    },
    {
        "code": "102968",
        "direction": "NW",
        "id": "MTA_102968",
        "lat": 40.866058,
        "locationType": 0,
        "lon": -73.894031,
        "name": "EAST KINGSBRIDGE RD/GRAND CONCOURSE",
        "routeIds": [
            "MTA NYCT_BX9",
            "MTA NYCT_BX22",
            "MTA NYCT_BX28",
            "MTA NYCT_BX38"
        ],
        "wheelchairBoarding": "UNKNOWN"
    },
    {
        "code": "103042",
        "direction": "E",
        "id": "MTA_103042",
        "lat": 40.863917,
        "locationType": 0,
        "lon": -73.894537,
        "name": "VALENTINE AV/E 192 ST",
        "routeIds": [
            "MTA NYCT_BX28",
            "MTA NYCT_BX38"
        ],
        "wheelchairBoarding": "UNKNOWN"
    },
    {
        "code": "103057",
        "direction": "SE",
        "id": "MTA_103057",
        "lat": 40.878707,
        "locationType": 0,
        "lon": -73.884969,
        "name": "EAST MOSHOLU PKWY SOUTH/GRAND CONCOURSE",
        "routeIds": [
            "MTA NYCT_BX28",
            "MTA NYCT_BX38"
        ],
        "wheelchairBoarding": "UNKNOWN"
    },
    {
        "code": "103060",
        "direction": "W",
        "id": "MTA_103060",
        "lat": 40.866888,
        "locationType": 0,
        "lon": -73.837711,
        "name": "BARTOW AV/GUNTHER AV",
        "routeIds": [
            "MTA NYCT_BX28",
            "MTA NYCT_BX38"
        ],
        "wheelchairBoarding": "UNKNOWN"
    },
    {
        "code": "103063",
        "direction": "E",
        "id": "MTA_103063",
        "lat": 40.86929,
        "locationType": 0,
        "lon": -73.825691,
        "name": "BARTOW AV/CO-OP CITY BLVD",
        "routeIds": [
            "MTABC_BX23",
            "MTA NYCT_BX25",
            "MTA NYCT_BX26",
            "MTA NYCT_BX28",
            "MTA NYCT_BX30",
            "MTA NYCT_BX38",
            "MTABC_BXM7",
            "MTABC_Q50"
        ],
        "wheelchairBoarding": "UNKNOWN"
    },
    {
        "code": "103081",
        "direction": "NE",
        "id": "MTA_103081",
        "lat": 40.871394,
        "locationType": 0,
        "lon": -73.830564,
        "name": "ALCOTT PL/ASCH LOOP",
        "routeIds": [
            "MTABC_BX23",
            "MTA NYCT_BX26",
            "MTA NYCT_BX28",
            "MTA NYCT_BX30",
            "MTABC_BXM7"
        ],
        "wheelchairBoarding": "UNKNOWN"
    },
    {
        "code": "103152",
        "direction": "W",
        "id": "MTA_103152",
        "lat": 40.876031,
        "locationType": 0,
        "lon": -73.829278,
        "name": "DREISER LOOP/DEFOE PL",
        "routeIds": [
            "MTABC_BX23",
            "MTA NYCT_BX25",
            "MTA NYCT_BX28",
            "MTA NYCT_BX30",
            "MTA NYCT_BX38"
        ],
        "wheelchairBoarding": "UNKNOWN"
    },
    {
        "code": "103279",
        "direction": "W",
        "id": "MTA_103279",
        "lat": 40.86958,
        "locationType": 0,
        "lon": -73.825892,
        "name": "BARTOW AV/CO-OP CITY BLVD",
        "routeIds": [
            "MTABC_BX23",
            "MTA NYCT_BX26",
            "MTA NYCT_BX28",
            "MTA NYCT_BX30",
            "MTABC_BXM7",
            "MTABC_Q50"
        ],
        "wheelchairBoarding": "UNKNOWN"
    },
    {
        "code": "103400",
        "direction": "SW",
        "id": "MTA_103400",
        "lat": 40.876681,
        "locationType": 0,
        "lon": -73.889931,
        "name": "PAUL AV/W 205 ST",
        "routeIds": [
            "MTA NYCT_BX10",
            "MTA NYCT_BX28",
            "MTA NYCT_BX38"
        ],
        "wheelchairBoarding": "UNKNOWN"
    },
    {
        "code": "103426",
        "direction": "N",
        "id": "MTA_103426",
        "lat": 40.874875,
        "locationType": 0,
        "lon": -73.8794,
        "name": "BAINBRIDGE AV/E 206 ST",
        "routeIds": [
            "MTA NYCT_BX28",
            "MTA NYCT_BX34",
            "MTA NYCT_BX38"
        ],
        "wheelchairBoarding": "UNKNOWN"
    },
    {
        "code": "103449",
        "direction": "NE",
        "id": "MTA_103449",
        "lat": 40.874638,
        "locationType": 0,
        "lon": -73.891419,
        "name": "PAUL AV/BEDFORD PARK BLVD",
        "routeIds": [
            "MTA NYCT_BX10",
            "MTA NYCT_BX28",
            "MTA NYCT_BX38"
        ],
        "wheelchairBoarding": "UNKNOWN"
    },
    {
        "code": "103537",
        "direction": "E",
        "id": "MTA_103537",
        "lat": 40.869089,
        "locationType": 0,
        "lon": -73.824455,
        "name": "BARTOW AV/2136 BARTOW AV",
        "routeIds": [
            "MTABC_BX23",
            "MTA NYCT_BX25",
            "MTA NYCT_BX26",
            "MTA NYCT_BX28",
            "MTA NYCT_BX30",
            "MTA NYCT_BX38",
            "MTABC_Q50"
        ],
        "wheelchairBoarding": "UNKNOWN"
    },
    {
        "code": "103538",
        "direction": "W",
        "id": "MTA_103538",
        "lat": 40.869269,
        "locationType": 0,
        "lon": -73.824034,
        "name": "BARTOW AV/REAR OF PATHMARK",
        "routeIds": [
            "MTABC_BX23",
            "MTA NYCT_BX26",
            "MTA NYCT_BX28",
            "MTA NYCT_BX30",
            "MTABC_Q50"
        ],
        "wheelchairBoarding": "UNKNOWN"
    },
    {
        "code": "103617",
        "direction": "S",
        "id": "MTA_103617",
        "lat": 40.874805,
        "locationType": 0,
        "lon": -73.879464,
        "name": "BAINBRIDGE AV/E 206 ST",
        "routeIds": [
            "MTA NYCT_BX28",
            "MTA NYCT_BX34",
            "MTA NYCT_BX38"
        ],
        "wheelchairBoarding": "UNKNOWN"
    },
    {
        "code": "103641",
        "direction": "W",
        "id": "MTA_103641",
        "lat": 40.868117,
        "locationType": 0,
        "lon": -73.833907,
        "name": "BARTOW AV/EDSON AV",
        "routeIds": [
            "MTA NYCT_BX25",
            "MTA NYCT_BX26",
            "MTA NYCT_BX28",
            "MTA NYCT_BX38"
        ],
        "wheelchairBoarding": "UNKNOWN"
    },
    {
        "code": "103671",
        "direction": "W",
        "id": "MTA_103671",
        "lat": 40.880365,
        "locationType": 0,
        "lon": -73.886348,
        "name": "PAUL AV/WEST MOSHOLU PKWY SOUTH",
        "routeIds": [
            "MTA NYCT_BX10",
            "MTA NYCT_BX28",
            "MTA NYCT_BX38"
        ],
        "wheelchairBoarding": "UNKNOWN"
    },
    {
        "code": "103674",
        "direction": "E",
        "id": "MTA_103674",
        "lat": 40.875936,
        "locationType": 0,
        "lon": -73.829479,
        "name": "DREISER LOOP/DEFOE PL",
        "routeIds": [
            "MTABC_BX23",
            "MTA NYCT_BX25",
            "MTA NYCT_BX28",
            "MTA NYCT_BX30",
            "MTA NYCT_BX38",
            "MTABC_BXM7"
        ],
        "wheelchairBoarding": "UNKNOWN"
    },
    {
        "code": "103676",
        "direction": "NE",
        "id": "MTA_103676",
        "lat": 40.863026,
        "locationType": 0,
        "lon": -73.82574,
        "name": "HUTCHINSON RVR PKWY E/BOLLER AV",
        "routeIds": [
            "MTA NYCT_BX28",
            "MTABC_Q50"
        ],
        "wheelchairBoarding": "UNKNOWN"
    },
    {
        "code": "103913",
        "direction": "SE",
        "id": "MTA_103913",
        "lat": 40.879128,
        "locationType": 0,
        "lon": -73.885581,
        "name": "WEST MOSHOLU PKWY SOUTH/JEROME AV",
        "routeIds": [
            "MTA NYCT_BX28",
            "MTA NYCT_BX38"
        ],
        "wheelchairBoarding": "UNKNOWN"
    },
    {
        "code": "104002",
        "direction": "N",
        "id": "MTA_104002",
        "lat": 40.879413,
        "locationType": 0,
        "lon": -73.879003,
        "name": "BAINBRIDGE AV/E 210 ST",
        "routeIds": [
            "MTA NYCT_BX10",
            "MTA NYCT_BX16",
            "MTA NYCT_BX28",
            "MTA NYCT_BX34",
            "MTA NYCT_BX38"
        ],
        "wheelchairBoarding": "UNKNOWN"
    },
    {
        "code": "104007",
        "direction": "E",
        "id": "MTA_104007",
        "lat": 40.878411,
        "locationType": 0,
        "lon": -73.870745,
        "name": "EAST GUN HILL RD/WEBSTER AV",
        "routeIds": [
            "MTA NYCT_BX28",
            "MTA NYCT_BX38"
        ],
        "wheelchairBoarding": "UNKNOWN"
    },
    {
        "code": "104052",
        "direction": "W",
        "id": "MTA_104052",
        "lat": 40.8755,
        "locationType": 0,
        "lon": -73.860325,
        "name": "EAST GUN HILL RD/BRONXWOOD AV",
        "routeIds": [
            "MTA NYCT_BX28",
            "MTA NYCT_BX38"
        ],
        "wheelchairBoarding": "UNKNOWN"
    },
    {
        "code": "104085",
        "direction": "SE",
        "id": "MTA_104085",
        "lat": 40.87347,
        "locationType": 0,
        "lon": -73.889546,
        "name": "BEDFORD PARK BLVD/JEROME AV",
        "routeIds": [
            "MTA NYCT_BX10",
            "MTA NYCT_BX25",
            "MTA NYCT_BX26",
            "MTA NYCT_BX28",
            "MTA NYCT_BX38"
        ],
        "wheelchairBoarding": "UNKNOWN"
    },
    {
        "code": "104087",
        "direction": "NW",
        "id": "MTA_104087",
        "lat": 40.873741,
        "locationType": 0,
        "lon": -73.889941,
        "name": "BEDFORD PARK BLVD/JEROME AV",
        "routeIds": [
            "MTA NYCT_BX10",
            "MTA NYCT_BX25",
            "MTA NYCT_BX26",
            "MTA NYCT_BX28",
            "MTA NYCT_BX38"
        ],
        "wheelchairBoarding": "UNKNOWN"
    },
    {
        "code": "104089",
        "direction": "N",
        "id": "MTA_104089",
        "lat": 40.864013,
        "locationType": 0,
        "lon": -73.894256,
        "name": "EAST KINGSBRIDGE RD/E 192 ST",
        "routeIds": [
            "MTA NYCT_BX28"
        ],
        "wheelchairBoarding": "UNKNOWN"
    },
    {
        "code": "104291",
        "direction": "W",
        "id": "MTA_104291",
        "lat": 40.877521,
        "locationType": 0,
        "lon": -73.866829,
        "name": "EAST GUN HILL RD/WHITE PLAINS RD",
        "routeIds": [
            "MTA NYCT_BX28",
            "MTA NYCT_BX38"
        ],
        "wheelchairBoarding": "UNKNOWN"
    },
    {
        "code": "104531",
        "direction": "",
        "id": "MTA_104531",
        "lat": 40.871084,
        "locationType": 0,
        "lon": -73.828469,
        "name": "ASCH LOOP/ADLER PL",
        "routeIds": [
            "MTABC_BX23",
            "MTA NYCT_BX26",
            "MTA NYCT_BX28",
            "MTA NYCT_BX30"
        ],
        "wheelchairBoarding": "UNKNOWN"
    },
    {
        "code": "104619",
        "direction": "NE",
        "id": "MTA_104619",
        "lat": 40.863045,
        "locationType": 0,
        "lon": -73.825716,
        "name": "HUTCHINSON RIVER PKWY/BOLLER AV",
        "routeIds": [
            "MTABC_BX23",
            "MTA NYCT_BX26",
            "MTA NYCT_BX28",
            "MTA NYCT_BX30"
        ],
        "wheelchairBoarding": "UNKNOWN"
    },
    {
        "code": "802008",
        "direction": "N",
        "id": "MTA_802008",
        "lat": 40.874804,
        "locationType": 0,
        "lon": -73.879385,
        "name": "BAINBRIDGE AV/E 206 ST",
        "routeIds": [
            "MTA NYCT_BX28"
        ],
        "wheelchairBoarding": "UNKNOWN"
    },
    {
        "code": "802021",
        "direction": "S",
        "id": "MTA_802021",
        "lat": 40.874442,
        "locationType": 0,
        "lon": -73.879381,
        "name": "BAINBRIDGE AV/E 206 ST",
        "routeIds": [
            "MTA NYCT_BX28",
            "MTA NYCT_BX38"
        ],
        "wheelchairBoarding": "UNKNOWN"
    },
    {
        "code": "802153",
        "direction": "W",
        "id": "MTA_802153",
        "lat": 40.871084,
        "locationType": 0,
        "lon": -73.828507,
        "name": "ASCH LOOP/ADLER PL",
        "routeIds": [
            "MTA NYCT_BX28"
        ],
        "wheelchairBoarding": "UNKNOWN"
    },
    {
        "code": "802166",
        "direction": "E",
        "id": "MTA_802166",
        "lat": 40.870955,
        "locationType": 0,
        "lon": -73.828366,
        "name": "ASCH LOOP/ADLER PL",
        "routeIds": [
            "MTA NYCT_BX28"
        ],
        "wheelchairBoarding": "UNKNOWN"
    },
    {
        "code": "902211",
        "direction": "NW",
        "id": "MTA_902211",
        "lat": 40.870364,
        "locationType": 0,
        "lon": -73.845979,
        "name": "EAST GUN HILL RD/SEYMOUR AV",
        "routeIds": [
            "MTA NYCT_BX28",
            "MTA NYCT_BX38"
        ],
        "wheelchairBoarding": "UNKNOWN"
    },
    {
        "code": "902217",
        "direction": "S",
        "id": "MTA_902217",
        "lat": 40.876213,
        "locationType": 0,
        "lon": -73.833934,
        "name": "BAYCHESTER AV/DONIZETTI PL",
        "routeIds": [
            "MTA NYCT_BX26",
            "MTA NYCT_BX28"
        ],
        "wheelchairBoarding": "UNKNOWN"
    },
    {
        "code": "902222",
        "direction": "NW",
        "id": "MTA_902222",
        "lat": 40.880231,
        "locationType": 0,
        "lon": -73.876708,
        "name": "EAST GUN HILL RD/TRYON AV",
        "routeIds": [
            "MTA NYCT_BX28",
            "MTA NYCT_BX38"
        ],
        "wheelchairBoarding": "UNKNOWN"
    },
    {
        "code": "902223",
        "direction": "W",
        "id": "MTA_902223",
        "lat": 40.878853,
        "locationType": 0,
        "lon": -73.873378,
        "name": "EAST GUN HILL RD/HULL AV",
        "routeIds": [
            "MTA NYCT_BX28",
            "MTA NYCT_BX38"
        ],
        "wheelchairBoarding": "UNKNOWN"
    }
]