[
    {
        "code": "500994",
        "direction": "NW",
        "id": "MTA_500994",
        "lat": 40.762692,
        "locationType": 0,
        "lon": -73.831721,
        "name": "MAIN ST/NORTHERN BLVD",
        "routeIds": [
            "MTABC_Q19",
            "MTA NYCT_Q20A",
            "MTA NYCT_Q20B",
            "MTABC_Q25",
            "MTABC_Q34",
            "MTABC_Q50",
            "MTABC_Q65",
            "MTABC_Q66"
        ],
        "wheelchairBoarding": "UNKNOWN"
    },
    {
        "code": "501097",
        "direction": "N",
        "id": "MTA_501097",
        "lat": 40.774854,
        "locationType": 0,
        "lon": -73.826088,
        "name": "UNION ST/26 AV",
        "routeIds": [
            "MTA NYCT_Q20A",
            "MTA NYCT_Q20B",
            "MTABC_Q34",
            "MTA NYCT_Q44+",
            "MTABC_QM2",
            "MTABC_QM20"
        ],
        "wheelchairBoarding": "UNKNOWN"
    },
    {
        "code": "501098",
        "direction": "NE",
        "id": "MTA_501098",
        "lat": 40.776539,
        "locationType": 0,
        "lon": -73.824723,
        "name": "UNION ST/PARSONS BLVD",
        "routeIds": [
            "MTA NYCT_Q20A",
            "MTA NYCT_Q20B",
            "MTABC_Q34"
        ],
        "wheelchairBoarding": "UNKNOWN"
    },
    {
        "code": "501100",
        "direction": "E",
        "id": "MTA_501100",
        "lat": 40.776811,
        "locationType": 0,
        "lon": -73.82178,
        "name": "WILLETS POINT BLVD/146 ST",
        "routeIds": [
            "MTABC_Q34",
            "MTABC_QM20"
        ],
        "wheelchairBoarding": "UNKNOWN"
    },
    {
        "code": "501101",
        "direction": "E",
        "id": "MTA_501101",
        "lat": 40.776579,
        "locationType": 0,
        "lon": -73.819457,
        "name": "WILLETS POINT BLVD/147 ST",
        "routeIds": [
            "MTABC_Q34"
        ],
        "wheelchairBoarding": "UNKNOWN"
    },
    {
        "code": "501132",
        "direction": "W",
        "id": "MTA_501132",
        "lat": 40.776771,
        "locationType": 0,
        "lon": -73.819847,
        "name": "WILLETS POINT BLVD/147 ST",
        "routeIds": [
            "MTABC_Q34"
        ],
        "wheelchairBoarding": "UNKNOWN"
    },
    {
        "code": "501133",
        "direction": "W",
        "id": "MTA_501133",
        "lat": 40.776959,
        "locationType": 0,
        "lon": -73.821561,
        "name": "WILLETS POINT BLVD/146 ST",
        "routeIds": [
            "MTABC_Q34",
            "MTABC_QM20"
        ],
        "wheelchairBoarding": "UNKNOWN"
    },
    {
        "code": "501134",
        "direction": "W",
        "id": "MTA_501134",
        "lat": 40.776827,
        "locationType": 0,
        "lon": -73.824218,
        "name": "WILLETS POINT BLVD/PARSONS BLVD",
        "routeIds": [
            "MTABC_Q34"
        ],
        "wheelchairBoarding": "UNKNOWN"
    },
    {
        "code": "501135",
        "direction": "S",
        "id": "MTA_501135",
        "lat": 40.775517,
        "locationType": 0,
        "lon": -73.826066,
        "name": "UNION ST/25 RD",
        "routeIds": [
            "MTA NYCT_Q20A",
            "MTA NYCT_Q20B",
            "MTABC_Q34"
        ],
        "wheelchairBoarding": "UNKNOWN"
    },
    {
        "code": "501136",
        "direction": "S",
        "id": "MTA_501136",
        "lat": 40.774121,
        "locationType": 0,
        "lon": -73.826445,
        "name": "UNION ST/26 AV",
        "routeIds": [
            "MTA NYCT_Q20A",
            "MTA NYCT_Q20B",
            "MTABC_Q34",
            "MTA NYCT_Q44+",
            "MTABC_QM2",
            "MTABC_QM20"
        ],
        "wheelchairBoarding": "UNKNOWN"
    },
    {
        "code": "501353",
        "direction": "N",
        "id": "MTA_501353",
        "lat": 40.739497,
        "locationType": 0,
        "lon": -73.815013,
        "name": "KISSENA BLVD/HORACE HARDING EXPWY",
        "routeIds": [
            "MTA NYCT_Q17",
            "MTABC_Q25",
            "MTABC_Q34"
        ],
        "wheelchairBoarding": "UNKNOWN"
    },
    {
        "code": "501355",
        "direction": "N",
        "id": "MTA_501355",
        "lat": 40.742499,
        "locationType": 0,
        "lon": -73.814355,
        "name": "KISSENA BLVD/58 AV",
        "routeIds": [
            "MTA NYCT_Q17",
            "MTABC_Q25",
            "MTABC_Q34"
        ],
        "wheelchairBoarding": "UNKNOWN"
    },
    {
        "code": "501356",
        "direction": "NW",
        "id": "MTA_501356",
        "lat": 40.746421,
        "locationType": 0,
        "lon": -73.814359,
        "name": "KISSENA BLVD/ROSE AV",
        "routeIds": [
            "MTA NYCT_Q17",
            "MTABC_Q25",
            "MTABC_Q34"
        ],
        "wheelchairBoarding": "UNKNOWN"
    },
    {
        "code": "501357",
        "direction": "NW",
        "id": "MTA_501357",
        "lat": 40.747516,
        "locationType": 0,
        "lon": -73.815565,
        "name": "KISSENA BLVD/POPLAR AV",
        "routeIds": [
            "MTA NYCT_Q17",
            "MTABC_Q25",
            "MTABC_Q34"
        ],
        "wheelchairBoarding": "UNKNOWN"
    },
    {
        "code": "501358",
        "direction": "NW",
        "id": "MTA_501358",
        "lat": 40.748541,
        "locationType": 0,
        "lon": -73.816749,
        "name": "KISSENA BLVD/NEGUNDO AV",
        "routeIds": [
            "MTA NYCT_Q17",
            "MTABC_Q25",
            "MTABC_Q34"
        ],
        "wheelchairBoarding": "UNKNOWN"
    },
    {
        "code": "501360",
        "direction": "NW",
        "id": "MTA_501360",
        "lat": 40.750892,
        "locationType": 0,
        "lon": -73.819302,
        "name": "KISSENA BLVD/HOLLY AV",
        "routeIds": [
            "MTA NYCT_Q17",
            "MTABC_Q25",
            "MTABC_Q34"
        ],
        "wheelchairBoarding": "UNKNOWN"
    },
    {
        "code": "501361",
        "direction": "NW",
        "id": "MTA_501361",
        "lat": 40.75251,
        "locationType": 0,
        "lon": -73.821069,
        "name": "KISSENA BLVD/45 AV",
        "routeIds": [
            "MTA NYCT_Q17",
            "MTABC_Q25",
            "MTA NYCT_Q27",
            "MTABC_Q34"
        ],
        "wheelchairBoarding": "UNKNOWN"
    },
    {
        "code": "501362",
        "direction": "NW",
        "id": "MTA_501362",
        "lat": 40.754146,
        "locationType": 0,
        "lon": -73.823029,
        "name": "KISSENA BLVD/CHERRY AV",
        "routeIds": [
            "MTA NYCT_Q17",
            "MTABC_Q25",
            "MTA NYCT_Q27",
            "MTABC_Q34"
        ],
        "wheelchairBoarding": "UNKNOWN"
    },
    {
        "code": "501363",
        "direction": "NW",
        "id": "MTA_501363",
        "lat": 40.755104,
        "locationType": 0,
        "lon": -73.824171,
        "name": "KISSENA BLVD/ASH AV",
        "routeIds": [
            "MTA NYCT_Q17",
            "MTABC_Q25",
            "MTA NYCT_Q27",
            "MTABC_Q34"
        ],
        "wheelchairBoarding": "UNKNOWN"
    },
    {
        "code": "501364",
        "direction": "NW",
        "id": "MTA_501364",
        "lat": 40.756326,
        "locationType": 0,
        "lon": -73.825658,
        "name": "KISSENA BLVD/MAPLE AV",
        "routeIds": [
            "MTA NYCT_Q17",
            "MTABC_Q25",
            "MTA NYCT_Q27",
            "MTABC_Q34"
        ],
        "wheelchairBoarding": "UNKNOWN"
    },
    {
        "code": "501365",
        "direction": "NW",
        "id": "MTA_501365",
        "lat": 40.757451,
        "locationType": 0,
        "lon": -73.827565,
        "name": "KISSENA BLVD/SANFORD AV",
        "routeIds": [
            "MTA NYCT_Q17",
            "MTABC_Q25",
            "MTA NYCT_Q27",
            "MTABC_Q34",
            "MTABC_Q65"
        ],
        "wheelchairBoarding": "UNKNOWN"
    },
    {
        "code": "501370",
        "direction": "SE",
        "id": "MTA_501370",
        "lat": 40.756909,
        "locationType": 0,
        "lon": -73.826851,
        "name": "KISSENA BLVD/SANFORD AV",
        "routeIds": [
            "MTA NYCT_Q17",
            "MTABC_Q25",
            "MTA NYCT_Q27",
            "MTABC_Q34"
        ],
        "wheelchairBoarding": "UNKNOWN"
    },
    {
        "code": "501371",
        "direction": "SE",
        "id": "MTA_501371",
        "lat": 40.755157,
        "locationType": 0,
        "lon": -73.824455,
        "name": "KISSENA BLVD/FRANKLIN AV",
        "routeIds": [
            "MTA NYCT_Q17",
            "MTABC_Q25",
            "MTA NYCT_Q27",
            "MTABC_Q34"
        ],
        "wheelchairBoarding": "UNKNOWN"
    },
    {
        "code": "501372",
        "direction": "SE",
        "id": "MTA_501372",
        "lat": 40.754385,
        "locationType": 0,
        "lon": -73.823537,
        "name": "KISSENA BLVD/BEECH AV",
        "routeIds": [
            "MTA NYCT_Q17",
            "MTABC_Q25",
            "MTA NYCT_Q27",
            "MTABC_Q34"
        ],
        "wheelchairBoarding": "UNKNOWN"
    },
    {
        "code": "501373",
        "direction": "SE",
        "id": "MTA_501373",
        "lat": 40.752856,
        "locationType": 0,
        "lon": -73.821725,
        "name": "KISSENA BLVD/ELDER AV",
        "routeIds": [
            "MTA NYCT_Q17",
            "MTABC_Q25",
            "MTA NYCT_Q27",
            "MTABC_Q34"
        ],
        "wheelchairBoarding": "UNKNOWN"
    },
    {
        "code": "501374",
        "direction": "SE",
        "id": "MTA_501374",
        "lat": 40.751943,
        "locationType": 0,
        "lon": -73.820663,
        "name": "KISSENA BLVD/45 AV",
        "routeIds": [
            "MTA NYCT_Q17",
            "MTABC_Q25",
            "MTA NYCT_Q27",
            "MTABC_Q34"
        ],
        "wheelchairBoarding": "UNKNOWN"
    },
    {
        "code": "501377",
        "direction": "SE",
        "id": "MTA_501377",
        "lat": 40.748481,
        "locationType": 0,
        "lon": -73.816912,
        "name": "KISSENA BLVD/MULBERRY AV",
        "routeIds": [
            "MTA NYCT_Q17",
            "MTABC_Q25",
            "MTABC_Q34"
        ],
        "wheelchairBoarding": "UNKNOWN"
    },
    {
        "code": "501378",
        "direction": "SE",
        "id": "MTA_501378",
        "lat": 40.74748,
        "locationType": 0,
        "lon": -73.815796,
        "name": "KISSENA BLVD/OAK AV",
        "routeIds": [
            "MTA NYCT_Q17",
            "MTABC_Q25",
            "MTABC_Q34"
        ],
        "wheelchairBoarding": "UNKNOWN"
    },
    {
        "code": "501379",
        "direction": "SE",
        "id": "MTA_501379",
        "lat": 40.746158,
        "locationType": 0,
        "lon": -73.814313,
        "name": "KISSENA BLVD/ROSE AV",
        "routeIds": [
            "MTA NYCT_Q17",
            "MTABC_Q25",
            "MTABC_Q34"
        ],
        "wheelchairBoarding": "UNKNOWN"
    },
    {
        "code": "501380",
        "direction": "S",
        "id": "MTA_501380",
        "lat": 40.742705,
        "locationType": 0,
        "lon": -73.814492,
        "name": "KISSENA BLVD/BOOTH MEMORIAL AV",
        "routeIds": [
            "MTA NYCT_Q17",
            "MTABC_Q25",
            "MTABC_Q34"
        ],
        "wheelchairBoarding": "UNKNOWN"
    },
    {
        "code": "501382",
        "direction": "SW",
        "id": "MTA_501382",
        "lat": 40.739651,
        "locationType": 0,
        "lon": -73.815222,
        "name": "KISSENA BLVD/60 AV",
        "routeIds": [
            "MTA NYCT_Q17",
            "MTABC_Q25",
            "MTABC_Q34"
        ],
        "wheelchairBoarding": "UNKNOWN"
    },
    {
        "code": "502254",
        "direction": "SE",
        "id": "MTA_502254",
        "lat": 40.762447,
        "locationType": 0,
        "lon": -73.831796,
        "name": "MAIN ST/NORTHERN BLVD",
        "routeIds": [
            "MTA NYCT_Q20A",
            "MTA NYCT_Q20B",
            "MTABC_Q25",
            "MTABC_Q34",
            "MTABC_Q50",
            "MTABC_Q65"
        ],
        "wheelchairBoarding": "UNKNOWN"
    },
    {
        "code": "502514",
        "direction": "S",
        "id": "MTA_502514",
        "lat": 40.737749,
        "locationType": 0,
        "lon": -73.814975,
        "name": "KISSENA BLVD/64 AV",
        "routeIds": [
            "MTABC_Q25",
            "MTABC_Q34"
        ],
        "wheelchairBoarding": "UNKNOWN"
    },
    {
        "code": "504081",
        "direction": "SE",
        "id": "MTA_504081",
        "lat": 40.750904,
        "locationType": 0,
        "lon": -73.819543,
        "name": "KISSENA BLVD/HOLLY AV",
        "routeIds": [
            "MTA NYCT_Q17",
            "MTABC_Q25",
            "MTABC_Q34"
        ],
        "wheelchairBoarding": "UNKNOWN"
    },
    {
        "code": "504483",
        "direction": "S",
        "id": "MTA_504483",
        "lat": 40.735614,
        "locationType": 0,
        "lon": -73.814866,
        "name": "KISSENA BLVD/QUEENS COLLEGE",
        "routeIds": [
            "MTABC_Q25",
            "MTABC_Q34"
        ],
        "wheelchairBoarding": "UNKNOWN"
    },
    {
        "code": "550972",
        "direction": "NW",
        "id": "MTA_550972",
        "lat": 40.705744,
        "locationType": 0,
        "lon": -73.801503,
        "name": "PARSONS BLVD/89 AV",
        "routeIds": [
            "MTABC_Q25",
            "MTABC_Q34",
            "MTABC_Q65"
        ],
        "wheelchairBoarding": "UNKNOWN"
    },
    {
        "code": "550973",
        "direction": "SE",
        "id": "MTA_550973",
        "lat": 40.70558,
        "locationType": 0,
        "lon": -73.801656,
        "name": "PARSONS BLVD/89 AV",
        "routeIds": [
            "MTABC_Q25",
            "MTABC_Q34"
        ],
        "wheelchairBoarding": "UNKNOWN"
    },
    {
        "code": "550978",
        "direction": "SE",
        "id": "MTA_550978",
        "lat": 40.707861,
        "locationType": 0,
        "lon": -73.802937,
        "name": "PARSONS BLVD/HILLSIDE AV",
        "routeIds": [
            "MTABC_Q25",
            "MTABC_Q34"
        ],
        "wheelchairBoarding": "UNKNOWN"
    },
    {
        "code": "550980",
        "direction": "NW",
        "id": "MTA_550980",
        "lat": 40.709009,
        "locationType": 0,
        "lon": -73.803954,
        "name": "PARSONS BLVD/87 AV",
        "routeIds": [
            "MTABC_Q25",
            "MTABC_Q34"
        ],
        "wheelchairBoarding": "UNKNOWN"
    },
    {
        "code": "550981",
        "direction": "NW",
        "id": "MTA_550981",
        "lat": 40.710204,
        "locationType": 0,
        "lon": -73.805414,
        "name": "PARSONS BLVD/159 ST",
        "routeIds": [
            "MTABC_Q25",
            "MTABC_Q34"
        ],
        "wheelchairBoarding": "UNKNOWN"
    },
    {
        "code": "550982",
        "direction": "N",
        "id": "MTA_550982",
        "lat": 40.712248,
        "locationType": 0,
        "lon": -73.806392,
        "name": "PARSONS BLVD/85 AV",
        "routeIds": [
            "MTABC_Q25",
            "MTABC_Q34"
        ],
        "wheelchairBoarding": "UNKNOWN"
    },
    {
        "code": "550983",
        "direction": "NW",
        "id": "MTA_550983",
        "lat": 40.713828,
        "locationType": 0,
        "lon": -73.80692,
        "name": "PARSONS BLVD/84 RD",
        "routeIds": [
            "MTABC_Q25",
            "MTABC_Q34"
        ],
        "wheelchairBoarding": "UNKNOWN"
    },
    {
        "code": "550984",
        "direction": "N",
        "id": "MTA_550984",
        "lat": 40.715664,
        "locationType": 0,
        "lon": -73.80767,
        "name": "PARSONS BLVD/GRAND CENTRAL PKWY",
        "routeIds": [
            "MTABC_Q25",
            "MTABC_Q34"
        ],
        "wheelchairBoarding": "UNKNOWN"
    },
    {
        "code": "550985",
        "direction": "S",
        "id": "MTA_550985",
        "lat": 40.716113,
        "locationType": 0,
        "lon": -73.807981,
        "name": "PARSONS BLVD/GRAND CENTRAL PKWY",
        "routeIds": [
            "MTABC_Q25",
            "MTABC_Q34"
        ],
        "wheelchairBoarding": "UNKNOWN"
    },
    {
        "code": "550986",
        "direction": "N",
        "id": "MTA_550986",
        "lat": 40.716994,
        "locationType": 0,
        "lon": -73.808035,
        "name": "PARSONS BLVD/82 DR",
        "routeIds": [
            "MTABC_Q25",
            "MTABC_Q34"
        ],
        "wheelchairBoarding": "UNKNOWN"
    },
    {
        "code": "550987",
        "direction": "N",
        "id": "MTA_550987",
        "lat": 40.718655,
        "locationType": 0,
        "lon": -73.808564,
        "name": "PARSONS BLVD/GOETHALS AV",
        "routeIds": [
            "MTABC_Q25",
            "MTABC_Q34"
        ],
        "wheelchairBoarding": "UNKNOWN"
    },
    {
        "code": "550988",
        "direction": "N",
        "id": "MTA_550988",
        "lat": 40.720209,
        "locationType": 0,
        "lon": -73.809019,
        "name": "PARSONS BLVD/UNION TPKE",
        "routeIds": [
            "MTABC_Q25",
            "MTABC_Q34"
        ],
        "wheelchairBoarding": "UNKNOWN"
    },
    {
        "code": "550989",
        "direction": "S",
        "id": "MTA_550989",
        "lat": 40.719666,
        "locationType": 0,
        "lon": -73.809079,
        "name": "PARSONS BLVD/UNION TPKE",
        "routeIds": [
            "MTABC_Q25",
            "MTABC_Q34"
        ],
        "wheelchairBoarding": "UNKNOWN"
    },
    {
        "code": "550991",
        "direction": "N",
        "id": "MTA_550991",
        "lat": 40.722539,
        "locationType": 0,
        "lon": -73.809816,
        "name": "PARSONS BLVD/78 AV",
        "routeIds": [
            "MTABC_Q25",
            "MTABC_Q34"
        ],
        "wheelchairBoarding": "UNKNOWN"
    },
    {
        "code": "550992",
        "direction": "N",
        "id": "MTA_550992",
        "lat": 40.723925,
        "locationType": 0,
        "lon": -73.810353,
        "name": "PARSONS BLVD/77 AV",
        "routeIds": [
            "MTABC_Q25",
            "MTABC_Q34"
        ],
        "wheelchairBoarding": "UNKNOWN"
    },
    {
        "code": "550993",
        "direction": "N",
        "id": "MTA_550993",
        "lat": 40.725323,
        "locationType": 0,
        "lon": -73.810579,
        "name": "PARSONS BLVD/76 AV",
        "routeIds": [
            "MTABC_Q25",
            "MTABC_Q34"
        ],
        "wheelchairBoarding": "UNKNOWN"
    },
    {
        "code": "550994",
        "direction": "NW",
        "id": "MTA_550994",
        "lat": 40.726666,
        "locationType": 0,
        "lon": -73.811264,
        "name": "KISSENA BLVD/75 AV",
        "routeIds": [
            "MTABC_Q25",
            "MTABC_Q34"
        ],
        "wheelchairBoarding": "UNKNOWN"
    },
    {
        "code": "550996",
        "direction": "SE",
        "id": "MTA_550996",
        "lat": 40.726998,
        "locationType": 0,
        "lon": -73.812322,
        "name": "KISSENA BLVD/73 AV",
        "routeIds": [
            "MTABC_Q25",
            "MTABC_Q34"
        ],
        "wheelchairBoarding": "UNKNOWN"
    },
    {
        "code": "550997",
        "direction": "NW",
        "id": "MTA_550997",
        "lat": 40.728,
        "locationType": 0,
        "lon": -73.814008,
        "name": "KISSENA BLVD/AGUILAR AV",
        "routeIds": [
            "MTABC_Q25",
            "MTABC_Q34"
        ],
        "wheelchairBoarding": "UNKNOWN"
    },
    {
        "code": "550998",
        "direction": "N",
        "id": "MTA_550998",
        "lat": 40.730585,
        "locationType": 0,
        "lon": -73.814855,
        "name": "KISSENA BLVD/71 AV",
        "routeIds": [
            "MTABC_Q25",
            "MTABC_Q34"
        ],
        "wheelchairBoarding": "UNKNOWN"
    },
    {
        "code": "550999",
        "direction": "N",
        "id": "MTA_550999",
        "lat": 40.732447,
        "locationType": 0,
        "lon": -73.814763,
        "name": "KISSENA BLVD/JEWEL AV",
        "routeIds": [
            "MTABC_Q25",
            "MTABC_Q34"
        ],
        "wheelchairBoarding": "UNKNOWN"
    },
    {
        "code": "551000",
        "direction": "S",
        "id": "MTA_551000",
        "lat": 40.73171,
        "locationType": 0,
        "lon": -73.815066,
        "name": "KISSENA BLVD/JEWEL AV",
        "routeIds": [
            "MTABC_Q25",
            "MTABC_Q34"
        ],
        "wheelchairBoarding": "UNKNOWN"
    },
    {
        "code": "551001",
        "direction": "N",
        "id": "MTA_551001",
        "lat": 40.733954,
        "locationType": 0,
        "lon": -73.814616,
        "name": "KISSENA BLVD/MELBOURNE AV",
        "routeIds": [
            "MTABC_Q25",
            "MTABC_Q34"
        ],
        "wheelchairBoarding": "UNKNOWN"
    },
    {
        "code": "551002",
        "direction": "S",
        "id": "MTA_551002",
        "lat": 40.733592,
        "locationType": 0,
        "lon": -73.814978,
        "name": "KISSENA BLVD/MELBOURNE AV",
        "routeIds": [
            "MTABC_Q25",
            "MTABC_Q34"
        ],
        "wheelchairBoarding": "UNKNOWN"
    },
    {
        "code": "551003",
        "direction": "N",
        "id": "MTA_551003",
        "lat": 40.736375,
        "locationType": 0,
        "lon": -73.81451,
        "name": "KISSENA BLVD/QUEENS COLLEGE",
        "routeIds": [
            "MTABC_Q25",
            "MTABC_Q34"
        ],
        "wheelchairBoarding": "UNKNOWN"
    },
    {
        "code": "551005",
        "direction": "N",
        "id": "MTA_551005",
        "lat": 40.73811,
        "locationType": 0,
        "lon": -73.814694,
        "name": "KISSENA BLVD/64 AV",
        "routeIds": [
            "MTABC_Q25",
            "MTABC_Q34"
        ],
        "wheelchairBoarding": "UNKNOWN"
    },
    {
        "code": "551013",
        "direction": "S",
        "id": "MTA_551013",
        "lat": 40.767593,
        "locationType": 0,
        "lon": -73.831941,
        "name": "LINDEN PL/32 AV",
        "routeIds": [
            "MTABC_Q25",
            "MTABC_Q34"
        ],
        "wheelchairBoarding": "UNKNOWN"
    },
    {
        "code": "551050",
        "direction": "SE",
        "id": "MTA_551050",
        "lat": 40.759003,
        "locationType": 0,
        "lon": -73.830017,
        "name": "MAIN ST/40 RD",
        "routeIds": [
            "MTABC_Q25",
            "MTABC_Q34"
        ],
        "wheelchairBoarding": "UNKNOWN"
    },
    {
        "code": "551051",
        "direction": "NW",
        "id": "MTA_551051",
        "lat": 40.759377,
        "locationType": 0,
        "lon": -73.829892,
        "name": "MAIN ST/ROOSEVELT AV",
        "routeIds": [
            "MTABC_Q25",
            "MTABC_Q34",
            "MTABC_Q65"
        ],
        "wheelchairBoarding": "UNKNOWN"
    },
    {
        "code": "551053",
        "direction": "S",
        "id": "MTA_551053",
        "lat": 40.730266,
        "locationType": 0,
        "lon": -73.815168,
        "name": "KISSENA BLVD/70 RD",
        "routeIds": [
            "MTABC_Q25",
            "MTABC_Q34"
        ],
        "wheelchairBoarding": "UNKNOWN"
    },
    {
        "code": "551054",
        "direction": "SE",
        "id": "MTA_551054",
        "lat": 40.72795,
        "locationType": 0,
        "lon": -73.814305,
        "name": "KISSENA BLVD/72 RD",
        "routeIds": [
            "MTABC_Q25",
            "MTABC_Q34"
        ],
        "wheelchairBoarding": "UNKNOWN"
    },
    {
        "code": "551055",
        "direction": "S",
        "id": "MTA_551055",
        "lat": 40.72561,
        "locationType": 0,
        "lon": -73.810801,
        "name": "PARSONS BLVD/75 RD",
        "routeIds": [
            "MTABC_Q25",
            "MTABC_Q34"
        ],
        "wheelchairBoarding": "UNKNOWN"
    },
    {
        "code": "551056",
        "direction": "S",
        "id": "MTA_551056",
        "lat": 40.724268,
        "locationType": 0,
        "lon": -73.810673,
        "name": "PARSONS BLVD/76 RD",
        "routeIds": [
            "MTABC_Q25",
            "MTABC_Q34"
        ],
        "wheelchairBoarding": "UNKNOWN"
    },
    {
        "code": "551057",
        "direction": "S",
        "id": "MTA_551057",
        "lat": 40.722869,
        "locationType": 0,
        "lon": -73.81016,
        "name": "PARSONS BLVD/77 RD",
        "routeIds": [
            "MTABC_Q25",
            "MTABC_Q34"
        ],
        "wheelchairBoarding": "UNKNOWN"
    },
    {
        "code": "551058",
        "direction": "S",
        "id": "MTA_551058",
        "lat": 40.721489,
        "locationType": 0,
        "lon": -73.809631,
        "name": "PARSONS BLVD/78 RD",
        "routeIds": [
            "MTABC_Q25",
            "MTABC_Q34"
        ],
        "wheelchairBoarding": "UNKNOWN"
    },
    {
        "code": "551059",
        "direction": "SE",
        "id": "MTA_551059",
        "lat": 40.714396,
        "locationType": 0,
        "lon": -73.80756,
        "name": "PARSONS BLVD/HOOVER AV",
        "routeIds": [
            "MTABC_Q25",
            "MTABC_Q34"
        ],
        "wheelchairBoarding": "UNKNOWN"
    },
    {
        "code": "551060",
        "direction": "S",
        "id": "MTA_551060",
        "lat": 40.712753,
        "locationType": 0,
        "lon": -73.80672,
        "name": "PARSONS BLVD/84 DR",
        "routeIds": [
            "MTABC_Q25",
            "MTABC_Q34"
        ],
        "wheelchairBoarding": "UNKNOWN"
    },
    {
        "code": "551061",
        "direction": "SE",
        "id": "MTA_551061",
        "lat": 40.709924,
        "locationType": 0,
        "lon": -73.805473,
        "name": "PARSONS BLVD/85 DR",
        "routeIds": [
            "MTABC_Q25",
            "MTABC_Q34"
        ],
        "wheelchairBoarding": "UNKNOWN"
    },
    {
        "code": "551138",
        "direction": "E",
        "id": "MTA_551138",
        "lat": 40.767778,
        "locationType": 0,
        "lon": -73.831658,
        "name": "32 AV/LINDEN PL",
        "routeIds": [
            "MTABC_Q34"
        ],
        "wheelchairBoarding": "UNKNOWN"
    },
    {
        "code": "551139",
        "direction": "NW",
        "id": "MTA_551139",
        "lat": 40.768474,
        "locationType": 0,
        "lon": -73.829731,
        "name": "138 ST/32 AV",
        "routeIds": [
            "MTABC_Q34"
        ],
        "wheelchairBoarding": "UNKNOWN"
    },
    {
        "code": "551140",
        "direction": "N",
        "id": "MTA_551140",
        "lat": 40.770222,
        "locationType": 0,
        "lon": -73.830433,
        "name": "138 ST/31 RD",
        "routeIds": [
            "MTABC_Q34"
        ],
        "wheelchairBoarding": "UNKNOWN"
    },
    {
        "code": "551142",
        "direction": "E",
        "id": "MTA_551142",
        "lat": 40.772191,
        "locationType": 0,
        "lon": -73.829299,
        "name": "28 RD/139 ST",
        "routeIds": [
            "MTABC_Q34",
            "MTABC_QM2",
            "MTABC_QM20"
        ],
        "wheelchairBoarding": "UNKNOWN"
    },
    {
        "code": "551143",
        "direction": "E",
        "id": "MTA_551143",
        "lat": 40.773022,
        "locationType": 0,
        "lon": -73.827623,
        "name": "28 AV/141 ST",
        "routeIds": [
            "MTABC_Q34",
            "MTABC_QM2",
            "MTABC_QM20"
        ],
        "wheelchairBoarding": "UNKNOWN"
    },
    {
        "code": "551144",
        "direction": "S",
        "id": "MTA_551144",
        "lat": 40.772918,
        "locationType": 0,
        "lon": -73.827973,
        "name": "141 ST/28 AV",
        "routeIds": [
            "MTABC_Q34",
            "MTABC_QM2",
            "MTABC_QM20"
        ],
        "wheelchairBoarding": "UNKNOWN"
    },
    {
        "code": "551148",
        "direction": "S",
        "id": "MTA_551148",
        "lat": 40.77208,
        "locationType": 0,
        "lon": -73.829665,
        "name": "139 ST/28 RD",
        "routeIds": [
            "MTABC_Q34",
            "MTABC_QM2",
            "MTABC_QM20"
        ],
        "wheelchairBoarding": "UNKNOWN"
    },
    {
        "code": "551149",
        "direction": "W",
        "id": "MTA_551149",
        "lat": 40.768301,
        "locationType": 0,
        "lon": -73.829975,
        "name": "32 AV/138 ST",
        "routeIds": [
            "MTABC_Q34"
        ],
        "wheelchairBoarding": "UNKNOWN"
    },
    {
        "code": "553058",
        "direction": "S",
        "id": "MTA_553058",
        "lat": 40.717299,
        "locationType": 0,
        "lon": -73.808355,
        "name": "PARSONS BLVD/VILLAGE RD",
        "routeIds": [
            "MTABC_Q25",
            "MTABC_Q34"
        ],
        "wheelchairBoarding": "UNKNOWN"
    },
    {
        "code": "553126",
        "direction": "NW",
        "id": "MTA_553126",
        "lat": 40.703616,
        "locationType": 0,
        "lon": -73.800218,
        "name": "PARSONS BLVD/JAMAICA AV",
        "routeIds": [
            "MTABC_Q25",
            "MTABC_Q34",
            "MTABC_Q65"
        ],
        "wheelchairBoarding": "UNKNOWN"
    },
    {
        "code": "553127",
        "direction": "SE",
        "id": "MTA_553127",
        "lat": 40.703425,
        "locationType": 0,
        "lon": -73.800343,
        "name": "PARSONS BLVD/JAMAICA AV",
        "routeIds": [
            "MTABC_Q25",
            "MTABC_Q34",
            "MTABC_Q65"
        ],
        "wheelchairBoarding": "UNKNOWN"
    },
    {
        "code": "553139",
        "direction": "SE",
        "id": "MTA_553139",
        "lat": 40.69914,
        "locationType": 0,
        "lon": -73.807077,
        "name": "SUTPHIN BLVD/94 AV",
        "routeIds": [
            "MTABC_Q25",
            "MTABC_Q34",
            "MTABC_Q65"
        ],
        "wheelchairBoarding": "UNKNOWN"
    },
    {
        "code": "553163",
        "direction": "N",
        "id": "MTA_553163",
        "lat": 40.764914,
        "locationType": 0,
        "lon": -73.830625,
        "name": "LINDEN PL/35 AV",
        "routeIds": [
            "MTABC_Q25",
            "MTABC_Q34",
            "MTABC_Q50"
        ],
        "wheelchairBoarding": "UNKNOWN"
    },
    {
        "code": "553164",
        "direction": "S",
        "id": "MTA_553164",
        "lat": 40.764796,
        "locationType": 0,
        "lon": -73.830799,
        "name": "LINDEN PL/35 AV",
        "routeIds": [
            "MTABC_Q25",
            "MTABC_Q34",
            "MTABC_Q50"
        ],
        "wheelchairBoarding": "UNKNOWN"
    },
    {
        "code": "553224",
        "direction": "S",
        "id": "MTA_553224",
        "lat": 40.770054,
        "locationType": 0,
        "lon": -73.830543,
        "name": "138 ST / 31 RD",
        "routeIds": [
            "MTABC_Q34"
        ],
        "wheelchairBoarding": "UNKNOWN"
    },
    {
        "code": "553236",
        "direction": "NW",
        "id": "MTA_553236",
        "lat": 40.707284,
        "locationType": 0,
        "lon": -73.802415,
        "name": "PARSONS BLVD/88 AV",
        "routeIds": [
            "MTABC_Q25",
            "MTABC_Q34",
            "MTABC_Q65"
        ],
        "wheelchairBoarding": "UNKNOWN"
    },
    {
        "code": "553295",
        "direction": "W",
        "id": "MTA_553295",
        "lat": 40.702763,
        "locationType": 0,
        "lon": -73.802608,
        "name": "JAMAICA AV/153 ST",
        "routeIds": [
            "MTABC_Q25",
            "MTABC_Q34",
            "MTABC_Q65"
        ],
        "wheelchairBoarding": "UNKNOWN"
    },
    {
        "code": "982077",
        "direction": "E",
        "id": "MTA_982077",
        "lat": 40.776548,
        "locationType": 0,
        "lon": -73.816897,
        "name": "WILLETS POINT BLVD/24 RD",
        "routeIds": [
            "MTABC_Q34"
        ],
        "wheelchairBoarding": "UNKNOWN"
    },
    {
        "code": "982095",
        "direction": "SE",
        "id": "MTA_982095",
        "lat": 40.699177,
        "locationType": 0,
        "lon": -73.807097,
        "name": "SUTPHIN BLVD/94 AV",
        "routeIds": [
            "MTABC_Q25",
            "MTABC_Q34",
            "MTABC_Q65"
        ],
        "wheelchairBoarding": "UNKNOWN"
    },
    {
        "code": "982096",
        "direction": "E",
        "id": "MTA_982096",
        "lat": 40.776522,
        "locationType": 0,
        "lon": -73.817002,
        "name": "WILLETS POINT BLVD/24 RD",
        "routeIds": [
            "MTABC_Q34"
        ],
        "wheelchairBoarding": "UNKNOWN"
    },
    {
        "code": "982183",
        "direction": "E",
        "id": "MTA_982183",
        "lat": 40.701625,
        "locationType": 0,
        "lon": -73.80338,
        "name": "ARCHER AV/151 ST",
        "routeIds": [
            "MTABC_Q25",
            "MTABC_Q34",
            "MTABC_Q65"
        ],
        "wheelchairBoarding": "UNKNOWN"
    }
]