[
    {
        "code": "401168",
        "direction": "E",
        "id": "MTA_401168",
        "lat": 40.713675,
        "locationType": 0,
        "lon": -73.994096,
        "name": "EAST BROADWAY/FORSYTH ST",
        "routeIds": [
            "MTA NYCT_M9"
        ],
        "wheelchairBoarding": "UNKNOWN"
    },
    {
        "code": "401169",
        "direction": "E",
        "id": "MTA_401169",
        "lat": 40.713808,
        "locationType": 0,
        "lon": -73.99265,
        "name": "EAST BROADWAY/PIKE ST",
        "routeIds": [
            "MTA NYCT_M9"
        ],
        "wheelchairBoarding": "UNKNOWN"
    },
    {
        "code": "401202",
        "direction": "SW",
        "id": "MTA_401202",
        "lat": 40.721859,
        "locationType": 0,
        "lon": -73.986612,
        "name": "ESSEX ST/EAST HOUSTON ST",
        "routeIds": [
            "MTA NYCT_M9"
        ],
        "wheelchairBoarding": "UNKNOWN"
    },
    {
        "code": "401206",
        "direction": "SW",
        "id": "MTA_401206",
        "lat": 40.716867,
        "locationType": 0,
        "lon": -73.989185,
        "name": "ESSEX ST/GRAND ST",
        "routeIds": [
            "MTA NYCT_M9"
        ],
        "wheelchairBoarding": "UNKNOWN"
    },
    {
        "code": "401208",
        "direction": "W",
        "id": "MTA_401208",
        "lat": 40.713947,
        "locationType": 0,
        "lon": -73.992385,
        "name": "EAST BROADWAY/PIKE ST",
        "routeIds": [
            "MTA NYCT_M9"
        ],
        "wheelchairBoarding": "UNKNOWN"
    },
    {
        "code": "401209",
        "direction": "W",
        "id": "MTA_401209",
        "lat": 40.71373,
        "locationType": 0,
        "lon": -73.995011,
        "name": "EAST BROADWAY/MARKET ST",
        "routeIds": [
            "MTA NYCT_M9",
            "MTA NYCT_M22"
        ],
        "wheelchairBoarding": "UNKNOWN"
    },
    {
        "code": "401210",
        "direction": "W",
        "id": "MTA_401210",
        "lat": 40.71351,
        "locationType": 0,
        "lon": -73.997626,
        "name": "EAST BROADWAY/CATHERINE ST",
        "routeIds": [
            "MTA NYCT_M9",
            "MTA NYCT_M22"
        ],
        "wheelchairBoarding": "UNKNOWN"
    },
    {
        "code": "401589",
        "direction": "SW",
        "id": "MTA_401589",
        "lat": 40.726979,
        "locationType": 0,
        "lon": -73.976815,
        "name": "AVENUE C/E 12 ST",
        "routeIds": [
            "MTA NYCT_M9",
            "MTA NYCT_M14D+"
        ],
        "wheelchairBoarding": "UNKNOWN"
    },
    {
        "code": "401630",
        "direction": "NE",
        "id": "MTA_401630",
        "lat": 40.727333,
        "locationType": 0,
        "lon": -73.976332,
        "name": "AVENUE C/E 12 ST",
        "routeIds": [
            "MTA NYCT_M9"
        ],
        "wheelchairBoarding": "UNKNOWN"
    },
    {
        "code": "401691",
        "direction": "NE",
        "id": "MTA_401691",
        "lat": 40.738358,
        "locationType": 0,
        "lon": -73.977404,
        "name": "1 AV/E 25 ST",
        "routeIds": [
            "MTA NYCT_M9",
            "MTA NYCT_M15"
        ],
        "wheelchairBoarding": "UNKNOWN"
    },
    {
        "code": "401832",
        "direction": "SE",
        "id": "MTA_401832",
        "lat": 40.737663,
        "locationType": 0,
        "lon": -73.980554,
        "name": "E 23 ST/2 AV",
        "routeIds": [
            "MTA NYCT_M9",
            "MTA NYCT_M23+",
            "MTA NYCT_M34A+",
            "MTA NYCT_M34+"
        ],
        "wheelchairBoarding": "UNKNOWN"
    },
    {
        "code": "402033",
        "direction": "E",
        "id": "MTA_402033",
        "lat": 40.721682,
        "locationType": 0,
        "lon": -73.984971,
        "name": "EAST HOUSTON ST/NORFOLK ST",
        "routeIds": [
            "MTA NYCT_M9",
            "MTA NYCT_M21"
        ],
        "wheelchairBoarding": "UNKNOWN"
    },
    {
        "code": "402034",
        "direction": "E",
        "id": "MTA_402034",
        "lat": 40.721285,
        "locationType": 0,
        "lon": -73.983737,
        "name": "EAST HOUSTON ST/CLINTON ST",
        "routeIds": [
            "MTA NYCT_M9",
            "MTA NYCT_M21"
        ],
        "wheelchairBoarding": "UNKNOWN"
    },
    {
        "code": "402036",
        "direction": "NE",
        "id": "MTA_402036",
        "lat": 40.721781,
        "locationType": 0,
        "lon": -73.980425,
        "name": "AVENUE C/E 3 ST",
        "routeIds": [
            "MTA NYCT_M9"
        ],
        "wheelchairBoarding": "UNKNOWN"
    },
    {
        "code": "402037",
        "direction": "NE",
        "id": "MTA_402037",
        "lat": 40.723008,
        "locationType": 0,
        "lon": -73.979516,
        "name": "AVENUE C/E 5 ST",
        "routeIds": [
            "MTA NYCT_M9"
        ],
        "wheelchairBoarding": "UNKNOWN"
    },
    {
        "code": "402038",
        "direction": "NE",
        "id": "MTA_402038",
        "lat": 40.724334,
        "locationType": 0,
        "lon": -73.978577,
        "name": "AVENUE C/E 7 ST",
        "routeIds": [
            "MTA NYCT_M9"
        ],
        "wheelchairBoarding": "UNKNOWN"
    },
    {
        "code": "402039",
        "direction": "NE",
        "id": "MTA_402039",
        "lat": 40.726278,
        "locationType": 0,
        "lon": -73.97714,
        "name": "AVENUE C/E 11 ST",
        "routeIds": [
            "MTA NYCT_M9",
            "MTA NYCT_M14D+"
        ],
        "wheelchairBoarding": "UNKNOWN"
    },
    {
        "code": "402041",
        "direction": "NE",
        "id": "MTA_402041",
        "lat": 40.728297,
        "locationType": 0,
        "lon": -73.975689,
        "name": "AVENUE C/E 14 ST",
        "routeIds": [
            "MTA NYCT_M9"
        ],
        "wheelchairBoarding": "UNKNOWN"
    },
    {
        "code": "402042",
        "direction": "NE",
        "id": "MTA_402042",
        "lat": 40.729699,
        "locationType": 0,
        "lon": -73.974715,
        "name": "AVENUE C/E 16 ST",
        "routeIds": [
            "MTA NYCT_M9"
        ],
        "wheelchairBoarding": "UNKNOWN"
    },
    {
        "code": "402043",
        "direction": "N",
        "id": "MTA_402043",
        "lat": 40.730813,
        "locationType": 0,
        "lon": -73.973903,
        "name": "AVENUE C/FDR DRIVE",
        "routeIds": [
            "MTA NYCT_M9"
        ],
        "wheelchairBoarding": "UNKNOWN"
    },
    {
        "code": "402048",
        "direction": "NW",
        "id": "MTA_402048",
        "lat": 40.740788,
        "locationType": 0,
        "lon": -73.975905,
        "name": "E 29 ST/1 AV",
        "routeIds": [
            "MTA NYCT_M9"
        ],
        "wheelchairBoarding": "UNKNOWN"
    },
    {
        "code": "402049",
        "direction": "NW",
        "id": "MTA_402049",
        "lat": 40.741591,
        "locationType": 0,
        "lon": -73.977915,
        "name": "E 29 ST/2 AV",
        "routeIds": [
            "MTA NYCT_M9"
        ],
        "wheelchairBoarding": "UNKNOWN"
    },
    {
        "code": "402054",
        "direction": "S",
        "id": "MTA_402054",
        "lat": 40.732795,
        "locationType": 0,
        "lon": -73.974542,
        "name": "AVENUE C/E 20 ST",
        "routeIds": [
            "MTA NYCT_M9",
            "MTA NYCT_M23+"
        ],
        "wheelchairBoarding": "UNKNOWN"
    },
    {
        "code": "402055",
        "direction": "S",
        "id": "MTA_402055",
        "lat": 40.731266,
        "locationType": 0,
        "lon": -73.974185,
        "name": "AVENUE C/E 18 ST",
        "routeIds": [
            "MTA NYCT_M9"
        ],
        "wheelchairBoarding": "UNKNOWN"
    },
    {
        "code": "402056",
        "direction": "SW",
        "id": "MTA_402056",
        "lat": 40.730031,
        "locationType": 0,
        "lon": -73.974881,
        "name": "AVENUE C/E 16 ST",
        "routeIds": [
            "MTA NYCT_M9"
        ],
        "wheelchairBoarding": "UNKNOWN"
    },
    {
        "code": "402057",
        "direction": "SW",
        "id": "MTA_402057",
        "lat": 40.728544,
        "locationType": 0,
        "lon": -73.975657,
        "name": "AVENUE C/E 14 ST",
        "routeIds": [
            "MTA NYCT_M9"
        ],
        "wheelchairBoarding": "UNKNOWN"
    },
    {
        "code": "402067",
        "direction": "W",
        "id": "MTA_402067",
        "lat": 40.721692,
        "locationType": 0,
        "lon": -73.984158,
        "name": "EAST HOUSTON ST/AVENUE B",
        "routeIds": [
            "MTA NYCT_M9",
            "MTA NYCT_M21"
        ],
        "wheelchairBoarding": "UNKNOWN"
    },
    {
        "code": "402870",
        "direction": "W",
        "id": "MTA_402870",
        "lat": 40.713411,
        "locationType": 0,
        "lon": -73.998961,
        "name": "PARK ROW/WORTH ST",
        "routeIds": [
            "MTA NYCT_M9"
        ],
        "wheelchairBoarding": "UNKNOWN"
    },
    {
        "code": "403303",
        "direction": "W",
        "id": "MTA_403303",
        "lat": 40.720988,
        "locationType": 0,
        "lon": -73.981738,
        "name": "EAST HOUSTON ST/AVENUE C",
        "routeIds": [
            "MTA NYCT_M9",
            "MTA NYCT_M21"
        ],
        "wheelchairBoarding": "UNKNOWN"
    },
    {
        "code": "403304",
        "direction": "SW",
        "id": "MTA_403304",
        "lat": 40.721384,
        "locationType": 0,
        "lon": -73.980901,
        "name": "AVENUE C/E 3 ST",
        "routeIds": [
            "MTA NYCT_M9"
        ],
        "wheelchairBoarding": "UNKNOWN"
    },
    {
        "code": "403305",
        "direction": "SW",
        "id": "MTA_403305",
        "lat": 40.723242,
        "locationType": 0,
        "lon": -73.979573,
        "name": "AVENUE C/E 6 ST",
        "routeIds": [
            "MTA NYCT_M9"
        ],
        "wheelchairBoarding": "UNKNOWN"
    },
    {
        "code": "403306",
        "direction": "SW",
        "id": "MTA_403306",
        "lat": 40.724441,
        "locationType": 0,
        "lon": -73.978696,
        "name": "AVENUE C/E 8 ST",
        "routeIds": [
            "MTA NYCT_M9"
        ],
        "wheelchairBoarding": "UNKNOWN"
    },
    {
        "code": "403307",
        "direction": "SW",
        "id": "MTA_403307",
        "lat": 40.725624,
        "locationType": 0,
        "lon": -73.977837,
        "name": "AVENUE C/E 10 ST",
        "routeIds": [
            "MTA NYCT_M9"
        ],
        "wheelchairBoarding": "UNKNOWN"
    },
    {
        "code": "403317",
        "direction": "NE",
        "id": "MTA_403317",
        "lat": 40.71682,
        "locationType": 0,
        "lon": -73.989005,
        "name": "ESSEX ST/GRAND ST",
        "routeIds": [
            "MTA NYCT_L92",
            "MTA NYCT_M9",
            "MTA NYCT_M14A+"
        ],
        "wheelchairBoarding": "UNKNOWN"
    },
    {
        "code": "403318",
        "direction": "SW",
        "id": "MTA_403318",
        "lat": 40.718247,
        "locationType": 0,
        "lon": -73.988474,
        "name": "ESSEX ST/DELANCEY ST",
        "routeIds": [
            "MTA NYCT_L92",
            "MTA NYCT_M9",
            "MTA NYCT_M14A+"
        ],
        "wheelchairBoarding": "UNKNOWN"
    },
    {
        "code": "403319",
        "direction": "SW",
        "id": "MTA_403319",
        "lat": 40.719587,
        "locationType": 0,
        "lon": -73.987781,
        "name": "ESSEX ST/RIVINGTON ST",
        "routeIds": [
            "MTA NYCT_M9"
        ],
        "wheelchairBoarding": "UNKNOWN"
    },
    {
        "code": "403397",
        "direction": "NW",
        "id": "MTA_403397",
        "lat": 40.708407,
        "locationType": 0,
        "lon": -74.017093,
        "name": "WEST THAMES ST/SOUTH END AV",
        "routeIds": [
            "MTA NYCT_M9",
            "MTA NYCT_M20"
        ],
        "wheelchairBoarding": "UNKNOWN"
    },
    {
        "code": "403399",
        "direction": "N",
        "id": "MTA_403399",
        "lat": 40.710724,
        "locationType": 0,
        "lon": -74.016075,
        "name": "SOUTH END AV/ALBANY ST",
        "routeIds": [
            "MTA NYCT_M9",
            "MTA NYCT_M20"
        ],
        "wheelchairBoarding": "UNKNOWN"
    },
    {
        "code": "403732",
        "direction": "NE",
        "id": "MTA_403732",
        "lat": 40.718944,
        "locationType": 0,
        "lon": -73.987893,
        "name": "ESSEX ST/DELANCEY ST",
        "routeIds": [
            "MTA NYCT_L92",
            "MTA NYCT_M9",
            "MTA NYCT_M14A+"
        ],
        "wheelchairBoarding": "UNKNOWN"
    },
    {
        "code": "404099",
        "direction": "NW",
        "id": "MTA_404099",
        "lat": 40.734053,
        "locationType": 0,
        "lon": -73.97755,
        "name": "E 20 ST/E 20 ST Loop",
        "routeIds": [
            "MTA NYCT_M9",
            "MTA NYCT_M23+"
        ],
        "wheelchairBoarding": "UNKNOWN"
    },
    {
        "code": "404100",
        "direction": "E",
        "id": "MTA_404100",
        "lat": 40.720652,
        "locationType": 0,
        "lon": -73.981642,
        "name": "EAST HOUSTON ST/RIDGE ST",
        "routeIds": [
            "MTA NYCT_M9",
            "MTA NYCT_M21"
        ],
        "wheelchairBoarding": "UNKNOWN"
    },
    {
        "code": "404264",
        "direction": "S",
        "id": "MTA_404264",
        "lat": 40.735175,
        "locationType": 0,
        "lon": -73.975191,
        "name": "AVENUE C/E 23 ST",
        "routeIds": [
            "MTA NYCT_M9",
            "MTA NYCT_M23+"
        ],
        "wheelchairBoarding": "UNKNOWN"
    },
    {
        "code": "404287",
        "direction": "W",
        "id": "MTA_404287",
        "lat": 40.714094,
        "locationType": 0,
        "lon": -73.990301,
        "name": "ESSEX ST/EAST BROADWAY",
        "routeIds": [
            "MTA NYCT_M9"
        ],
        "wheelchairBoarding": "UNKNOWN"
    },
    {
        "code": "404857",
        "direction": "E",
        "id": "MTA_404857",
        "lat": 40.713374,
        "locationType": 0,
        "lon": -73.998679,
        "name": "PARK ROW/SAINT JAMES PL",
        "routeIds": [
            "MTA NYCT_M9"
        ],
        "wheelchairBoarding": "UNKNOWN"
    },
    {
        "code": "405006",
        "direction": "E",
        "id": "MTA_405006",
        "lat": 40.713376,
        "locationType": 0,
        "lon": -73.997392,
        "name": "EAST BROADWAY/CATHERINE ST",
        "routeIds": [
            "MTA NYCT_M9"
        ],
        "wheelchairBoarding": "UNKNOWN"
    },
    {
        "code": "405165",
        "direction": "NE",
        "id": "MTA_405165",
        "lat": 40.715445,
        "locationType": 0,
        "lon": -73.989723,
        "name": "ESSEX ST/CANAL ST",
        "routeIds": [
            "MTA NYCT_M9"
        ],
        "wheelchairBoarding": "UNKNOWN"
    },
    {
        "code": "405368",
        "direction": "NE",
        "id": "MTA_405368",
        "lat": 40.736654,
        "locationType": 0,
        "lon": -73.978633,
        "name": "1 AV/E 23 ST",
        "routeIds": [
            "MTA NYCT_M9"
        ],
        "wheelchairBoarding": "UNKNOWN"
    },
    {
        "code": "405386",
        "direction": "NW",
        "id": "MTA_405386",
        "lat": 40.713897,
        "locationType": 0,
        "lon": -74.008942,
        "name": "MURRAY ST/CHURCH ST",
        "routeIds": [
            "MTA NYCT_M9"
        ],
        "wheelchairBoarding": "UNKNOWN"
    },
    {
        "code": "405390",
        "direction": "SE",
        "id": "MTA_405390",
        "lat": 40.736864,
        "locationType": 0,
        "lon": -73.978704,
        "name": "E 23 ST/1 AV",
        "routeIds": [
            "MTA NYCT_M9",
            "MTA NYCT_X37",
            "MTA NYCT_X38"
        ],
        "wheelchairBoarding": "UNKNOWN"
    },
    {
        "code": "405396",
        "direction": "NE",
        "id": "MTA_405396",
        "lat": 40.739627,
        "locationType": 0,
        "lon": -73.976496,
        "name": "1 AV/E 27 ST",
        "routeIds": [
            "MTA NYCT_M9",
            "MTA NYCT_M15"
        ],
        "wheelchairBoarding": "UNKNOWN"
    },
    {
        "code": "803105",
        "direction": "SE",
        "id": "MTA_803105",
        "lat": 40.714232,
        "locationType": 0,
        "lon": -74.008257,
        "name": "WARREN ST/CHURCH ST",
        "routeIds": [
            "MTA NYCT_M9"
        ],
        "wheelchairBoarding": "UNKNOWN"
    },
    {
        "code": "803108",
        "direction": "N",
        "id": "MTA_803108",
        "lat": 40.710277,
        "locationType": 0,
        "lon": -74.016204,
        "name": "SOUTH END AV/ALBANY ST",
        "routeIds": [
            "MTA NYCT_M9"
        ],
        "wheelchairBoarding": "UNKNOWN"
    },
    {
        "code": "803147",
        "direction": "SE",
        "id": "MTA_803147",
        "lat": 40.715614,
        "locationType": 0,
        "lon": -74.011327,
        "name": "WARREN ST/GREENWICH ST",
        "routeIds": [
            "MTA NYCT_M9"
        ],
        "wheelchairBoarding": "UNKNOWN"
    },
    {
        "code": "903280",
        "direction": "E",
        "id": "MTA_903280",
        "lat": 40.711897,
        "locationType": 0,
        "lon": -74.006203,
        "name": "PARK ROW/SPRUCE ST",
        "routeIds": [
            "MTA NYCT_M9",
            "MTA NYCT_M22"
        ],
        "wheelchairBoarding": "UNKNOWN"
    },
    {
        "code": "903282",
        "direction": "W",
        "id": "MTA_903282",
        "lat": 40.711756,
        "locationType": 0,
        "lon": -74.007362,
        "name": "PARK ROW/BEEKMAN ST",
        "routeIds": [
            "MTA NYCT_M9",
            "MTA NYCT_M103"
        ],
        "wheelchairBoarding": "UNKNOWN"
    },
    {
        "code": "903298",
        "direction": "NW",
        "id": "MTA_903298",
        "lat": 40.714453,
        "locationType": 0,
        "lon": -74.010234,
        "name": "MURRAY ST/WEST BROADWAY",
        "routeIds": [
            "MTA NYCT_M9"
        ],
        "wheelchairBoarding": "UNKNOWN"
    }
]