[
    {
        "code": "200244",
        "direction": "N",
        "id": "MTA_200244",
        "lat": 40.632007,
        "locationType": 0,
        "lon": -74.165169,
        "name": "GRANDVIEW AV/BRABANT ST",
        "routeIds": [
            "MTA NYCT_S46",
            "MTA NYCT_S96"
        ],
        "wheelchairBoarding": "UNKNOWN"
    },
    {
        "code": "200245",
        "direction": "E",
        "id": "MTA_200245",
        "lat": 40.631562,
        "locationType": 0,
        "lon": -74.161324,
        "name": "BRABANT ST/LOCKMAN AV",
        "routeIds": [
            "MTA NYCT_S46",
            "MTA NYCT_S96"
        ],
        "wheelchairBoarding": "UNKNOWN"
    },
    {
        "code": "200246",
        "direction": "E",
        "id": "MTA_200246",
        "lat": 40.631327,
        "locationType": 0,
        "lon": -74.158333,
        "name": "BRABANT ST/UNION AV",
        "routeIds": [
            "MTA NYCT_S46",
            "MTA NYCT_S96"
        ],
        "wheelchairBoarding": "UNKNOWN"
    },
    {
        "code": "200247",
        "direction": "E",
        "id": "MTA_200247",
        "lat": 40.632411,
        "locationType": 0,
        "lon": -74.156603,
        "name": "WALLOON ST/MAPLE PKWY",
        "routeIds": [
            "MTA NYCT_S46",
            "MTA NYCT_S96"
        ],
        "wheelchairBoarding": "UNKNOWN"
    },
    {
        "code": "200248",
        "direction": "E",
        "id": "MTA_200248",
        "lat": 40.631205,
        "locationType": 0,
        "lon": -74.155494,
        "name": "DE RUYTER PL/VAN PELT AV",
        "routeIds": [
            "MTA NYCT_S46",
            "MTA NYCT_S96"
        ],
        "wheelchairBoarding": "UNKNOWN"
    },
    {
        "code": "200249",
        "direction": "E",
        "id": "MTA_200249",
        "lat": 40.63186,
        "locationType": 0,
        "lon": -74.153831,
        "name": "WALKER ST/VAN NAME AV",
        "routeIds": [
            "MTA NYCT_S46",
            "MTA NYCT_S96"
        ],
        "wheelchairBoarding": "UNKNOWN"
    },
    {
        "code": "200250",
        "direction": "E",
        "id": "MTA_200250",
        "lat": 40.631687,
        "locationType": 0,
        "lon": -74.151795,
        "name": "WALKER ST/SIMONSON AV",
        "routeIds": [
            "MTA NYCT_S46",
            "MTA NYCT_S96"
        ],
        "wheelchairBoarding": "UNKNOWN"
    },
    {
        "code": "200251",
        "direction": "E",
        "id": "MTA_200251",
        "lat": 40.63109,
        "locationType": 0,
        "lon": -74.147139,
        "name": "WALKER ST/MORNINGSTAR RD",
        "routeIds": [
            "MTA NYCT_S46",
            "MTA NYCT_S96"
        ],
        "wheelchairBoarding": "UNKNOWN"
    },
    {
        "code": "200252",
        "direction": "N",
        "id": "MTA_200252",
        "lat": 40.6326,
        "locationType": 0,
        "lon": -74.146285,
        "name": "MORNINGSTAR RD/KALVER PL",
        "routeIds": [
            "MTA NYCT_S46",
            "MTA NYCT_S96"
        ],
        "wheelchairBoarding": "UNKNOWN"
    },
    {
        "code": "200255",
        "direction": "E",
        "id": "MTA_200255",
        "lat": 40.633424,
        "locationType": 0,
        "lon": -74.14175,
        "name": "INNIS ST/NICHOLAS AV",
        "routeIds": [
            "MTA NYCT_S46",
            "MTA NYCT_S96"
        ],
        "wheelchairBoarding": "UNKNOWN"
    },
    {
        "code": "200256",
        "direction": "N",
        "id": "MTA_200256",
        "lat": 40.63498,
        "locationType": 0,
        "lon": -74.140651,
        "name": "NICHOLAS AV/CHARLES AV",
        "routeIds": [
            "MTA NYCT_S46",
            "MTA NYCT_S96"
        ],
        "wheelchairBoarding": "UNKNOWN"
    },
    {
        "code": "200257",
        "direction": "N",
        "id": "MTA_200257",
        "lat": 40.636066,
        "locationType": 0,
        "lon": -74.140185,
        "name": "NICHOLAS AV/CASTLETON AV",
        "routeIds": [
            "MTA NYCT_S46",
            "MTA NYCT_S96"
        ],
        "wheelchairBoarding": "UNKNOWN"
    },
    {
        "code": "200260",
        "direction": "E",
        "id": "MTA_200260",
        "lat": 40.635935,
        "locationType": 0,
        "lon": -74.135065,
        "name": "CASTLETON AV/PORT RICHMOND AV",
        "routeIds": [
            "MTA NYCT_S46",
            "MTA NYCT_S96"
        ],
        "wheelchairBoarding": "UNKNOWN"
    },
    {
        "code": "200261",
        "direction": "E",
        "id": "MTA_200261",
        "lat": 40.633639,
        "locationType": 0,
        "lon": -74.129649,
        "name": "CASTLETON AV/JEWETT AV",
        "routeIds": [
            "MTA NYCT_S46",
            "MTA NYCT_S53",
            "MTA NYCT_S66",
            "MTA NYCT_S96"
        ],
        "wheelchairBoarding": "UNKNOWN"
    },
    {
        "code": "200266",
        "direction": "E",
        "id": "MTA_200266",
        "lat": 40.6345,
        "locationType": 0,
        "lon": -74.117325,
        "name": "CASTLETON AV/BROADWAY",
        "routeIds": [
            "MTA NYCT_S46",
            "MTA NYCT_S53",
            "MTA NYCT_S54",
            "MTA NYCT_S96"
        ],
        "wheelchairBoarding": "UNKNOWN"
    },
    {
        "code": "200271",
        "direction": "E",
        "id": "MTA_200271",
        "lat": 40.634643,
        "locationType": 0,
        "lon": -74.10616,
        "name": "CASTLETON AV/BARD AV",
        "routeIds": [
            "MTA NYCT_S46",
            "MTA NYCT_S96"
        ],
        "wheelchairBoarding": "UNKNOWN"
    },
    {
        "code": "200275",
        "direction": "E",
        "id": "MTA_200275",
        "lat": 40.633947,
        "locationType": 0,
        "lon": -74.097737,
        "name": "CASTLETON AV/BRIGHTON AV",
        "routeIds": [
            "MTA NYCT_S46",
            "MTA NYCT_S96"
        ],
        "wheelchairBoarding": "UNKNOWN"
    },
    {
        "code": "200306",
        "direction": "W",
        "id": "MTA_200306",
        "lat": 40.634776,
        "locationType": 0,
        "lon": -74.106281,
        "name": "CASTLETON AV/BARD AV",
        "routeIds": [
            "MTA NYCT_S46",
            "MTA NYCT_S96"
        ],
        "wheelchairBoarding": "UNKNOWN"
    },
    {
        "code": "200310",
        "direction": "W",
        "id": "MTA_200310",
        "lat": 40.634584,
        "locationType": 0,
        "lon": -74.117749,
        "name": "CASTLETON AV/BROADWAY",
        "routeIds": [
            "MTA NYCT_S46",
            "MTA NYCT_S96"
        ],
        "wheelchairBoarding": "UNKNOWN"
    },
    {
        "code": "200314",
        "direction": "W",
        "id": "MTA_200314",
        "lat": 40.633917,
        "locationType": 0,
        "lon": -74.125845,
        "name": "CASTLETON AV/CLOVE RD",
        "routeIds": [
            "MTA NYCT_S46",
            "MTA NYCT_S53",
            "MTA NYCT_S54",
            "MTA NYCT_S96"
        ],
        "wheelchairBoarding": "UNKNOWN"
    },
    {
        "code": "200315",
        "direction": "W",
        "id": "MTA_200315",
        "lat": 40.63385,
        "locationType": 0,
        "lon": -74.129761,
        "name": "CASTLETON AV/JEWETT AV",
        "routeIds": [
            "MTA NYCT_S46",
            "MTA NYCT_S53",
            "MTA NYCT_S66",
            "MTA NYCT_S96"
        ],
        "wheelchairBoarding": "UNKNOWN"
    },
    {
        "code": "200317",
        "direction": "W",
        "id": "MTA_200317",
        "lat": 40.636099,
        "locationType": 0,
        "lon": -74.134826,
        "name": "CASTLETON AV/PORT RICHMOND AV",
        "routeIds": [
            "MTA NYCT_S46",
            "MTA NYCT_S96"
        ],
        "wheelchairBoarding": "UNKNOWN"
    },
    {
        "code": "200318",
        "direction": "W",
        "id": "MTA_200318",
        "lat": 40.63616,
        "locationType": 0,
        "lon": -74.137703,
        "name": "CASTLETON AV/SHARPE AV",
        "routeIds": [
            "MTA NYCT_S46",
            "MTA NYCT_S96"
        ],
        "wheelchairBoarding": "UNKNOWN"
    },
    {
        "code": "200319",
        "direction": "W",
        "id": "MTA_200319",
        "lat": 40.63624,
        "locationType": 0,
        "lon": -74.139948,
        "name": "CASTLETON AV/NICHOLAS AV",
        "routeIds": [
            "MTA NYCT_S46",
            "MTA NYCT_S96"
        ],
        "wheelchairBoarding": "UNKNOWN"
    },
    {
        "code": "200320",
        "direction": "S",
        "id": "MTA_200320",
        "lat": 40.635298,
        "locationType": 0,
        "lon": -74.140704,
        "name": "NICHOLAS AV/CHARLES AV",
        "routeIds": [
            "MTA NYCT_S44",
            "MTA NYCT_S46",
            "MTA NYCT_S96"
        ],
        "wheelchairBoarding": "UNKNOWN"
    },
    {
        "code": "200322",
        "direction": "W",
        "id": "MTA_200322",
        "lat": 40.633783,
        "locationType": 0,
        "lon": -74.142537,
        "name": "INNIS ST/SAINT JOSEPH AV",
        "routeIds": [
            "MTA NYCT_S46",
            "MTA NYCT_S96"
        ],
        "wheelchairBoarding": "UNKNOWN"
    },
    {
        "code": "200323",
        "direction": "W",
        "id": "MTA_200323",
        "lat": 40.634502,
        "locationType": 0,
        "lon": -74.144639,
        "name": "INNIS ST/EATON PL",
        "routeIds": [
            "MTA NYCT_S46",
            "MTA NYCT_S96"
        ],
        "wheelchairBoarding": "UNKNOWN"
    },
    {
        "code": "200327",
        "direction": "W",
        "id": "MTA_200327",
        "lat": 40.63147,
        "locationType": 0,
        "lon": -74.148199,
        "name": "WALKER ST/PULASKI AV",
        "routeIds": [
            "MTA NYCT_S46",
            "MTA NYCT_S96"
        ],
        "wheelchairBoarding": "UNKNOWN"
    },
    {
        "code": "200329",
        "direction": "W",
        "id": "MTA_200329",
        "lat": 40.631931,
        "locationType": 0,
        "lon": -74.152588,
        "name": "WALKER ST/SIMONSON AV",
        "routeIds": [
            "MTA NYCT_S46",
            "MTA NYCT_S96"
        ],
        "wheelchairBoarding": "UNKNOWN"
    },
    {
        "code": "200330",
        "direction": "W",
        "id": "MTA_200330",
        "lat": 40.632111,
        "locationType": 0,
        "lon": -74.155024,
        "name": "WALKER ST/VAN PELT AV",
        "routeIds": [
            "MTA NYCT_S46",
            "MTA NYCT_S96"
        ],
        "wheelchairBoarding": "UNKNOWN"
    },
    {
        "code": "200331",
        "direction": "W",
        "id": "MTA_200331",
        "lat": 40.633873,
        "locationType": 0,
        "lon": -74.155554,
        "name": "LINDEN AV/VAN PELT AV",
        "routeIds": [
            "MTA NYCT_S46",
            "MTA NYCT_S96"
        ],
        "wheelchairBoarding": "UNKNOWN"
    },
    {
        "code": "200332",
        "direction": "S",
        "id": "MTA_200332",
        "lat": 40.632724,
        "locationType": 0,
        "lon": -74.156614,
        "name": "MAPLE PKWY/WALLOON ST",
        "routeIds": [
            "MTA NYCT_S46",
            "MTA NYCT_S96"
        ],
        "wheelchairBoarding": "UNKNOWN"
    },
    {
        "code": "200333",
        "direction": "S",
        "id": "MTA_200333",
        "lat": 40.631654,
        "locationType": 0,
        "lon": -74.158305,
        "name": "UNION AV/BRABANT ST",
        "routeIds": [
            "MTA NYCT_S46",
            "MTA NYCT_S96"
        ],
        "wheelchairBoarding": "UNKNOWN"
    },
    {
        "code": "200334",
        "direction": "W",
        "id": "MTA_200334",
        "lat": 40.631737,
        "locationType": 0,
        "lon": -74.162106,
        "name": "BRABANT ST/LOCKMAN AV",
        "routeIds": [
            "MTA NYCT_S46",
            "MTA NYCT_S96"
        ],
        "wheelchairBoarding": "UNKNOWN"
    },
    {
        "code": "200335",
        "direction": "W",
        "id": "MTA_200335",
        "lat": 40.632202,
        "locationType": 0,
        "lon": -74.165083,
        "name": "BRABANT ST/GRANDVIEW AV",
        "routeIds": [
            "MTA NYCT_S46",
            "MTA NYCT_S96"
        ],
        "wheelchairBoarding": "UNKNOWN"
    },
    {
        "code": "202522",
        "direction": "N",
        "id": "MTA_202522",
        "lat": 40.634388,
        "locationType": 0,
        "lon": -74.145694,
        "name": "MORNINGSTAR RD/INNIS ST",
        "routeIds": [
            "MTA NYCT_S46",
            "MTA NYCT_S96"
        ],
        "wheelchairBoarding": "UNKNOWN"
    },
    {
        "code": "202536",
        "direction": "N",
        "id": "MTA_202536",
        "lat": 40.627571,
        "locationType": 0,
        "lon": -74.165353,
        "name": "GRANDVIEW AV/FOREST AV",
        "routeIds": [
            "MTA NYCT_S46",
            "MTA NYCT_S96"
        ],
        "wheelchairBoarding": "UNKNOWN"
    },
    {
        "code": "202537",
        "direction": "N",
        "id": "MTA_202537",
        "lat": 40.630585,
        "locationType": 0,
        "lon": -74.165234,
        "name": "GRANDVIEW AV/CONTINENTAL PL",
        "routeIds": [
            "MTA NYCT_S46",
            "MTA NYCT_S96"
        ],
        "wheelchairBoarding": "UNKNOWN"
    },
    {
        "code": "202538",
        "direction": "W",
        "id": "MTA_202538",
        "lat": 40.643352,
        "locationType": 0,
        "lon": -74.073774,
        "name": "SAINT GEORGE FERRY/RAMP C S46 & S96",
        "routeIds": [
            "MTA NYCT_S46",
            "MTA NYCT_S96"
        ],
        "wheelchairBoarding": "UNKNOWN"
    },
    {
        "code": "202600",
        "direction": "S",
        "id": "MTA_202600",
        "lat": 40.632433,
        "locationType": 0,
        "lon": -74.14658,
        "name": "MORNINGSTAR RD/KALVER PL",
        "routeIds": [
            "MTA NYCT_S46",
            "MTA NYCT_S96"
        ],
        "wheelchairBoarding": "UNKNOWN"
    },
    {
        "code": "202830",
        "direction": "S",
        "id": "MTA_202830",
        "lat": 40.62977,
        "locationType": 0,
        "lon": -74.166522,
        "name": "SOUTH AV/CABLE WAY",
        "routeIds": [
            "MTA NYCT_S40",
            "MTA NYCT_S46",
            "MTA NYCT_S48",
            "MTA NYCT_S90",
            "MTA NYCT_S96",
            "MTA NYCT_S98"
        ],
        "wheelchairBoarding": "UNKNOWN"
    },
    {
        "code": "203032",
        "direction": "E",
        "id": "MTA_203032",
        "lat": 40.633841,
        "locationType": 0,
        "lon": -74.125398,
        "name": "CASTLETON AV/CLOVE RD",
        "routeIds": [
            "MTA NYCT_S46",
            "MTA NYCT_S53",
            "MTA NYCT_S96"
        ],
        "wheelchairBoarding": "UNKNOWN"
    },
    {
        "code": "203381",
        "direction": "S",
        "id": "MTA_203381",
        "lat": 40.627206,
        "locationType": 0,
        "lon": -74.166797,
        "name": "SOUTH AV/FOREST AV",
        "routeIds": [
            "MTA NYCT_S46",
            "MTA NYCT_S96"
        ],
        "wheelchairBoarding": "UNKNOWN"
    },
    {
        "code": "203382",
        "direction": "S",
        "id": "MTA_203382",
        "lat": 40.623568,
        "locationType": 0,
        "lon": -74.167591,
        "name": "SOUTH AV/AMADOR ST",
        "routeIds": [
            "MTA NYCT_S46",
            "MTA NYCT_S96"
        ],
        "wheelchairBoarding": "UNKNOWN"
    },
    {
        "code": "203383",
        "direction": "SW",
        "id": "MTA_203383",
        "lat": 40.621698,
        "locationType": 0,
        "lon": -74.168498,
        "name": "SOUTH AV/GOETHALS RD NORTH",
        "routeIds": [
            "MTA NYCT_S46",
            "MTA NYCT_S96"
        ],
        "wheelchairBoarding": "UNKNOWN"
    },
    {
        "code": "203384",
        "direction": "SW",
        "id": "MTA_203384",
        "lat": 40.607664,
        "locationType": 0,
        "lon": -74.179454,
        "name": "SOUTH AV/TELEPORT DR",
        "routeIds": [
            "MTA NYCT_S46",
            "MTA NYCT_S96"
        ],
        "wheelchairBoarding": "UNKNOWN"
    },
    {
        "code": "203386",
        "direction": "E",
        "id": "MTA_203386",
        "lat": 40.601885,
        "locationType": 0,
        "lon": -74.191752,
        "name": "SOUTH AV/WEST SHORE PLAZA",
        "routeIds": [
            "MTA NYCT_S46",
            "MTA NYCT_S96"
        ],
        "wheelchairBoarding": "UNKNOWN"
    },
    {
        "code": "203387",
        "direction": "NE",
        "id": "MTA_203387",
        "lat": 40.60819,
        "locationType": 0,
        "lon": -74.178743,
        "name": "SOUTH AV/TELEPORT DR",
        "routeIds": [
            "MTA NYCT_S46",
            "MTA NYCT_S96"
        ],
        "wheelchairBoarding": "UNKNOWN"
    },
    {
        "code": "203388",
        "direction": "NE",
        "id": "MTA_203388",
        "lat": 40.621644,
        "locationType": 0,
        "lon": -74.16832,
        "name": "SOUTH AV/GOETHALS RD NORTH",
        "routeIds": [
            "MTA NYCT_S46",
            "MTA NYCT_S96"
        ],
        "wheelchairBoarding": "UNKNOWN"
    },
    {
        "code": "203389",
        "direction": "N",
        "id": "MTA_203389",
        "lat": 40.624197,
        "locationType": 0,
        "lon": -74.167232,
        "name": "SOUTH AV/AMADOR ST",
        "routeIds": [
            "MTA NYCT_S46",
            "MTA NYCT_S96"
        ],
        "wheelchairBoarding": "UNKNOWN"
    },
    {
        "code": "203574",
        "direction": "NE",
        "id": "MTA_203574",
        "lat": 40.60248,
        "locationType": 0,
        "lon": -74.184125,
        "name": "SOUTH AV/TRAVIS AV",
        "routeIds": [
            "MTA NYCT_S46",
            "MTA NYCT_S96"
        ],
        "wheelchairBoarding": "UNKNOWN"
    },
    {
        "code": "203575",
        "direction": "NE",
        "id": "MTA_203575",
        "lat": 40.616076,
        "locationType": 0,
        "lon": -74.172344,
        "name": "SOUTH AV/OPP 1000 SOUTH AV",
        "routeIds": [
            "MTA NYCT_S46",
            "MTA NYCT_S96"
        ],
        "wheelchairBoarding": "UNKNOWN"
    },
    {
        "code": "203576",
        "direction": "SW",
        "id": "MTA_203576",
        "lat": 40.615562,
        "locationType": 0,
        "lon": -74.173157,
        "name": "SOUTH AV/1000 SOUTH AV",
        "routeIds": [
            "MTA NYCT_S46",
            "MTA NYCT_S96"
        ],
        "wheelchairBoarding": "UNKNOWN"
    },
    {
        "code": "203577",
        "direction": "SW",
        "id": "MTA_203577",
        "lat": 40.60241,
        "locationType": 0,
        "lon": -74.18456,
        "name": "SOUTH AV/TRAVIS AV",
        "routeIds": [
            "MTA NYCT_S46",
            "MTA NYCT_S96"
        ],
        "wheelchairBoarding": "UNKNOWN"
    },
    {
        "code": "203650",
        "direction": "N",
        "id": "MTA_203650",
        "lat": 40.640614,
        "locationType": 0,
        "lon": -74.075665,
        "name": "BAY ST/BOROUGH PL",
        "routeIds": [
            "MTA NYCT_S42",
            "MTA NYCT_S46",
            "MTA NYCT_S48",
            "MTA NYCT_S51",
            "MTA NYCT_S52",
            "MTA NYCT_S61",
            "MTA NYCT_S62",
            "MTA NYCT_S66",
            "MTA NYCT_S74",
            "MTA NYCT_S76",
            "MTA NYCT_S78",
            "MTA NYCT_S91",
            "MTA NYCT_S92",
            "MTA NYCT_S96",
            "MTA NYCT_S98"
        ],
        "wheelchairBoarding": "UNKNOWN"
    },
    {
        "code": "203687",
        "direction": "E",
        "id": "MTA_203687",
        "lat": 40.635981,
        "locationType": 0,
        "lon": -74.137922,
        "name": "CASTLETON AV/TREADWELL AV",
        "routeIds": [
            "MTA NYCT_S46",
            "MTA NYCT_S96"
        ],
        "wheelchairBoarding": "UNKNOWN"
    },
    {
        "code": "203829",
        "direction": "SW",
        "id": "MTA_203829",
        "lat": 40.612025,
        "locationType": 0,
        "lon": -74.175954,
        "name": "SOUTH AV/LOIS LN",
        "routeIds": [
            "MTA NYCT_S46",
            "MTA NYCT_S96"
        ],
        "wheelchairBoarding": "UNKNOWN"
    },
    {
        "code": "203830",
        "direction": "NE",
        "id": "MTA_203830",
        "lat": 40.612963,
        "locationType": 0,
        "lon": -74.174739,
        "name": "SOUTH AV/LOIS LN",
        "routeIds": [
            "MTA NYCT_S46",
            "MTA NYCT_S96"
        ],
        "wheelchairBoarding": "UNKNOWN"
    },
    {
        "code": "805003",
        "direction": "W",
        "id": "MTA_805003",
        "lat": 40.633999,
        "locationType": 0,
        "lon": -74.097609,
        "name": "CASTLETON AV/BRIGHTON AV",
        "routeIds": [
            "MTA NYCT_S96"
        ],
        "wheelchairBoarding": "UNKNOWN"
    },
    {
        "code": "805015",
        "direction": "W",
        "id": "MTA_805015",
        "lat": 40.643555,
        "locationType": 0,
        "lon": -74.073184,
        "name": "SAINT GEORGE FERRY/RAMP C",
        "routeIds": [
            "MTA NYCT_S46",
            "MTA NYCT_S74",
            "MTA NYCT_S78",
            "MTA NYCT_S96"
        ],
        "wheelchairBoarding": "UNKNOWN"
    },
    {
        "code": "805040",
        "direction": "SW",
        "id": "MTA_805040",
        "lat": 40.610502,
        "locationType": 0,
        "lon": -74.177271,
        "name": "SOUTH AV/1200 SOUTH AV",
        "routeIds": [
            "MTA NYCT_S46",
            "MTA NYCT_S96"
        ],
        "wheelchairBoarding": "UNKNOWN"
    },
    {
        "code": "805138",
        "direction": "SE",
        "id": "MTA_805138",
        "lat": 40.606799,
        "locationType": 0,
        "lon": -74.178243,
        "name": "TELEPORT DR/SOUTH AV",
        "routeIds": [
            "MTA NYCT_S46",
            "MTA NYCT_S96"
        ],
        "wheelchairBoarding": "UNKNOWN"
    },
    {
        "code": "805139",
        "direction": "NW",
        "id": "MTA_805139",
        "lat": 40.606845,
        "locationType": 0,
        "lon": -74.177648,
        "name": "TELEPORT DR/SOUTH AV EXIT",
        "routeIds": [
            "MTA NYCT_S46",
            "MTA NYCT_S96"
        ],
        "wheelchairBoarding": "UNKNOWN"
    },
    {
        "code": "905002",
        "direction": "E",
        "id": "MTA_905002",
        "lat": 40.637675,
        "locationType": 0,
        "lon": -74.076194,
        "name": "VICTORY BLVD/BAY ST",
        "routeIds": [
            "MTA NYCT_S46",
            "MTA NYCT_S48",
            "MTA NYCT_S61",
            "MTA NYCT_S62",
            "MTA NYCT_S66",
            "MTA NYCT_S91",
            "MTA NYCT_S92",
            "MTA NYCT_S96",
            "MTA NYCT_S98"
        ],
        "wheelchairBoarding": "UNKNOWN"
    },
    {
        "code": "905003",
        "direction": "W",
        "id": "MTA_905003",
        "lat": 40.637812,
        "locationType": 0,
        "lon": -74.076158,
        "name": "VICTORY BLVD/BAY ST",
        "routeIds": [
            "MTA NYCT_S46",
            "MTA NYCT_S48",
            "MTA NYCT_S61",
            "MTA NYCT_S62",
            "MTA NYCT_S66",
            "MTA NYCT_S91",
            "MTA NYCT_S92",
            "MTA NYCT_S96",
            "MTA NYCT_S98"
        ],
        "wheelchairBoarding": "UNKNOWN"
    },
    {
        "code": "905114",
        "direction": "E",
        "id": "MTA_905114",
        "lat": 40.601619,
        "locationType": 0,
        "lon": -74.192639,
        "name": "SOUTH AV/WEST SHORE PLAZA",
        "routeIds": [
            "MTA NYCT_S46",
            "MTA NYCT_S96"
        ],
        "wheelchairBoarding": "UNKNOWN"
    },
    {
        "code": "905154",
        "direction": "SE",
        "id": "MTA_905154",
        "lat": 40.60453,
        "locationType": 0,
        "lon": -74.178526,
        "name": "TELEPORT DR/CORPORATE COMMONS",
        "routeIds": [
            "MTA NYCT_S46",
            "MTA NYCT_S96"
        ],
        "wheelchairBoarding": "UNKNOWN"
    },
    {
        "code": "905155",
        "direction": "SE",
        "id": "MTA_905155",
        "lat": 40.604704,
        "locationType": 0,
        "lon": -74.17873,
        "name": "TELEPORT DR/CORPORATE COMMONS",
        "routeIds": [
            "MTA NYCT_S46",
            "MTA NYCT_S96"
        ],
        "wheelchairBoarding": "UNKNOWN"
    },
    {
        "code": "905156",
        "direction": "SE",
        "id": "MTA_905156",
        "lat": 40.60683,
        "locationType": 0,
        "lon": -74.178282,
        "name": "TELEPORT DR/SOUTH AV",
        "routeIds": [
            "MTA NYCT_S46",
            "MTA NYCT_S96"
        ],
        "wheelchairBoarding": "UNKNOWN"
    },
    {
        "code": "905157",
        "direction": "NW",
        "id": "MTA_905157",
        "lat": 40.606893,
        "locationType": 0,
        "lon": -74.177699,
        "name": "TELEPORT DR/SOUTH AV EXIT",
        "routeIds": [
            "MTA NYCT_S46",
            "MTA NYCT_S96"
        ],
        "wheelchairBoarding": "UNKNOWN"
    }
]