[
    {
        "code": "301856",
        "direction": "W",
        "id": "MTA_301856",
        "lat": 40.712412,
        "locationType": 0,
        "lon": -73.938816,
        "name": "GRAND ST/OLIVE ST",
        "routeIds": [
            "MTA NYCT_Q54",
            "MTA NYCT_Q59"
        ],
        "wheelchairBoarding": "UNKNOWN"
    },
    {
        "code": "301857",
        "direction": "W",
        "id": "MTA_301857",
        "lat": 40.711905,
        "locationType": 0,
        "lon": -73.941236,
        "name": "GRAND ST/BUSHWICK AV",
        "routeIds": [
            "MTA NYCT_Q54",
            "MTA NYCT_Q59"
        ],
        "wheelchairBoarding": "UNKNOWN"
    },
    {
        "code": "302288",
        "direction": "W",
        "id": "MTA_302288",
        "lat": 40.714091,
        "locationType": 0,
        "lon": -73.952005,
        "name": "METROPOLITAN AV/MACRI SQ",
        "routeIds": [
            "MTA NYCT_B24",
            "MTA NYCT_Q59"
        ],
        "wheelchairBoarding": "UNKNOWN"
    },
    {
        "code": "302294",
        "direction": "W",
        "id": "MTA_302294",
        "lat": 40.709362,
        "locationType": 0,
        "lon": -73.960501,
        "name": "BROADWAY/ROEBLING ST",
        "routeIds": [
            "MTA NYCT_B32",
            "MTA NYCT_B62",
            "MTA NYCT_Q59"
        ],
        "wheelchairBoarding": "UNKNOWN"
    },
    {
        "code": "302300",
        "direction": "W",
        "id": "MTA_302300",
        "lat": 40.714667,
        "locationType": 0,
        "lon": -73.961579,
        "name": "GRAND ST/BEDFORD AV",
        "routeIds": [
            "MTA NYCT_Q59"
        ],
        "wheelchairBoarding": "UNKNOWN"
    },
    {
        "code": "302306",
        "direction": "E",
        "id": "MTA_302306",
        "lat": 40.710487,
        "locationType": 0,
        "lon": -73.966188,
        "name": "BROADWAY/WYTHE AV",
        "routeIds": [
            "MTA NYCT_B32",
            "MTA NYCT_Q59"
        ],
        "wheelchairBoarding": "UNKNOWN"
    },
    {
        "code": "304244",
        "direction": "E",
        "id": "MTA_304244",
        "lat": 40.711655,
        "locationType": 0,
        "lon": -73.943117,
        "name": "GRAND ST/GRAHAM AV",
        "routeIds": [
            "MTA NYCT_Q54",
            "MTA NYCT_Q59"
        ],
        "wheelchairBoarding": "UNKNOWN"
    },
    {
        "code": "304246",
        "direction": "NE",
        "id": "MTA_304246",
        "lat": 40.712415,
        "locationType": 0,
        "lon": -73.938437,
        "name": "GRAND ST/WATERBURY ST",
        "routeIds": [
            "MTA NYCT_Q54",
            "MTA NYCT_Q59"
        ],
        "wheelchairBoarding": "UNKNOWN"
    },
    {
        "code": "304247",
        "direction": "E",
        "id": "MTA_304247",
        "lat": 40.713293,
        "locationType": 0,
        "lon": -73.934906,
        "name": "GRAND ST/MORGAN AV",
        "routeIds": [
            "MTA NYCT_Q54",
            "MTA NYCT_Q59"
        ],
        "wheelchairBoarding": "UNKNOWN"
    },
    {
        "code": "304368",
        "direction": "W",
        "id": "MTA_304368",
        "lat": 40.71343,
        "locationType": 0,
        "lon": -73.934716,
        "name": "GRAND ST/MORGAN AV",
        "routeIds": [
            "MTA NYCT_Q54",
            "MTA NYCT_Q59"
        ],
        "wheelchairBoarding": "UNKNOWN"
    },
    {
        "code": "304376",
        "direction": "W",
        "id": "MTA_304376",
        "lat": 40.711154,
        "locationType": 0,
        "lon": -73.949291,
        "name": "GRAND ST/LORIMER ST",
        "routeIds": [
            "MTA NYCT_Q54",
            "MTA NYCT_Q59"
        ],
        "wheelchairBoarding": "UNKNOWN"
    },
    {
        "code": "304850",
        "direction": "E",
        "id": "MTA_304850",
        "lat": 40.71436,
        "locationType": 0,
        "lon": -73.961133,
        "name": "GRAND ST/BEDFORD AV",
        "routeIds": [
            "MTA NYCT_Q59"
        ],
        "wheelchairBoarding": "UNKNOWN"
    },
    {
        "code": "304863",
        "direction": "E",
        "id": "MTA_304863",
        "lat": 40.714024,
        "locationType": 0,
        "lon": -73.932089,
        "name": "GRAND ST/METRO BRIDGE",
        "routeIds": [
            "MTA NYCT_Q54",
            "MTA NYCT_Q59"
        ],
        "wheelchairBoarding": "UNKNOWN"
    },
    {
        "code": "304920",
        "direction": "W",
        "id": "MTA_304920",
        "lat": 40.715457,
        "locationType": 0,
        "lon": -73.926882,
        "name": "GRAND ST/GARDNER AV",
        "routeIds": [
            "MTA NYCT_Q59"
        ],
        "wheelchairBoarding": "UNKNOWN"
    },
    {
        "code": "304938",
        "direction": "W",
        "id": "MTA_304938",
        "lat": 40.713456,
        "locationType": 0,
        "lon": -73.958674,
        "name": "GRAND ST/ROEBLING ST",
        "routeIds": [
            "MTA NYCT_Q59"
        ],
        "wheelchairBoarding": "UNKNOWN"
    },
    {
        "code": "304943",
        "direction": "W",
        "id": "MTA_304943",
        "lat": 40.710389,
        "locationType": 0,
        "lon": -73.964353,
        "name": "BROADWAY/BEDFORD AV",
        "routeIds": [
            "MTA NYCT_B32",
            "MTA NYCT_Q59"
        ],
        "wheelchairBoarding": "UNKNOWN"
    },
    {
        "code": "306393",
        "direction": "NW",
        "id": "MTA_306393",
        "lat": 40.715315,
        "locationType": 0,
        "lon": -73.926805,
        "name": "GARDNER AV/GRAND ST",
        "routeIds": [
            "MTA NYCT_Q59"
        ],
        "wheelchairBoarding": "UNKNOWN"
    },
    {
        "code": "306461",
        "direction": "E",
        "id": "MTA_306461",
        "lat": 40.710192,
        "locationType": 0,
        "lon": -73.963556,
        "name": "BROADWAY/BEDFORD AV",
        "routeIds": [
            "MTA NYCT_B32",
            "MTA NYCT_Q59"
        ],
        "wheelchairBoarding": "UNKNOWN"
    },
    {
        "code": "307856",
        "direction": "W",
        "id": "MTA_307856",
        "lat": 40.714171,
        "locationType": 0,
        "lon": -73.931836,
        "name": "GRAND ST/METROPOLITAN AV BRIDGE",
        "routeIds": [
            "MTA NYCT_Q59"
        ],
        "wheelchairBoarding": "UNKNOWN"
    },
    {
        "code": "307860",
        "direction": "E",
        "id": "MTA_307860",
        "lat": 40.711148,
        "locationType": 0,
        "lon": -73.948499,
        "name": "GRAND ST/LORIMER ST",
        "routeIds": [
            "MTA NYCT_Q54",
            "MTA NYCT_Q59"
        ],
        "wheelchairBoarding": "UNKNOWN"
    },
    {
        "code": "307861",
        "direction": "E",
        "id": "MTA_307861",
        "lat": 40.716201,
        "locationType": 0,
        "lon": -73.923685,
        "name": "GRAND ST/GRAND ST BRIDGE",
        "routeIds": [
            "MTA NYCT_Q59"
        ],
        "wheelchairBoarding": "UNKNOWN"
    },
    {
        "code": "308181",
        "direction": "W",
        "id": "MTA_308181",
        "lat": 40.716046,
        "locationType": 0,
        "lon": -73.92461,
        "name": "GRAND ST/GRAND ST BRIDGE",
        "routeIds": [
            "MTA NYCT_Q59"
        ],
        "wheelchairBoarding": "UNKNOWN"
    },
    {
        "code": "308271",
        "direction": "W",
        "id": "MTA_308271",
        "lat": 40.711017,
        "locationType": 0,
        "lon": -73.950982,
        "name": "GRAND ST/UNION AV",
        "routeIds": [
            "MTA NYCT_Q54",
            "MTA NYCT_Q59"
        ],
        "wheelchairBoarding": "UNKNOWN"
    },
    {
        "code": "308272",
        "direction": "E",
        "id": "MTA_308272",
        "lat": 40.71094,
        "locationType": 0,
        "lon": -73.950691,
        "name": "GRAND ST/UNION AV",
        "routeIds": [
            "MTA NYCT_Q54",
            "MTA NYCT_Q59"
        ],
        "wheelchairBoarding": "UNKNOWN"
    },
    {
        "code": "308396",
        "direction": "NE",
        "id": "MTA_308396",
        "lat": 40.71216,
        "locationType": 0,
        "lon": -73.967883,
        "name": "KENT AV/S 6 ST",
        "routeIds": [
            "MTA NYCT_B32",
            "MTA NYCT_Q59"
        ],
        "wheelchairBoarding": "UNKNOWN"
    },
    {
        "code": "308397",
        "direction": "NE",
        "id": "MTA_308397",
        "lat": 40.714192,
        "locationType": 0,
        "lon": -73.966936,
        "name": "KENT AV/S 3 ST",
        "routeIds": [
            "MTA NYCT_B32",
            "MTA NYCT_Q59"
        ],
        "wheelchairBoarding": "UNKNOWN"
    },
    {
        "code": "308398",
        "direction": "NE",
        "id": "MTA_308398",
        "lat": 40.715795,
        "locationType": 0,
        "lon": -73.966214,
        "name": "KENT AV/S 1 ST",
        "routeIds": [
            "MTA NYCT_B32",
            "MTA NYCT_Q59"
        ],
        "wheelchairBoarding": "UNKNOWN"
    },
    {
        "code": "308399",
        "direction": "E",
        "id": "MTA_308399",
        "lat": 40.715736,
        "locationType": 0,
        "lon": -73.964691,
        "name": "GRAND ST/WYTHE AV",
        "routeIds": [
            "MTA NYCT_Q59"
        ],
        "wheelchairBoarding": "UNKNOWN"
    },
    {
        "code": "308444",
        "direction": "NE",
        "id": "MTA_308444",
        "lat": 40.713355,
        "locationType": 0,
        "lon": -73.958225,
        "name": "ROEBLING ST/GRAND ST",
        "routeIds": [
            "MTA NYCT_Q59"
        ],
        "wheelchairBoarding": "UNKNOWN"
    },
    {
        "code": "308448",
        "direction": "W",
        "id": "MTA_308448",
        "lat": 40.714125,
        "locationType": 0,
        "lon": -73.954958,
        "name": "METROPOLITAN AV/N 5 ST",
        "routeIds": [
            "MTA NYCT_Q59"
        ],
        "wheelchairBoarding": "UNKNOWN"
    },
    {
        "code": "308455",
        "direction": "SW",
        "id": "MTA_308455",
        "lat": 40.713629,
        "locationType": 0,
        "lon": -73.965508,
        "name": "WYTHE AV/S 3 ST",
        "routeIds": [
            "MTA NYCT_B32",
            "MTA NYCT_Q59"
        ],
        "wheelchairBoarding": "UNKNOWN"
    },
    {
        "code": "308456",
        "direction": "SW",
        "id": "MTA_308456",
        "lat": 40.712032,
        "locationType": 0,
        "lon": -73.9662,
        "name": "WYTHE AV/S 5 ST",
        "routeIds": [
            "MTA NYCT_B32",
            "MTA NYCT_Q59"
        ],
        "wheelchairBoarding": "UNKNOWN"
    },
    {
        "code": "308503",
        "direction": "E",
        "id": "MTA_308503",
        "lat": 40.712062,
        "locationType": 0,
        "lon": -73.940017,
        "name": "GRAND ST/BUSHWICK AV",
        "routeIds": [
            "MTA NYCT_Q54",
            "MTA NYCT_Q59"
        ],
        "wheelchairBoarding": "UNKNOWN"
    },
    {
        "code": "308577",
        "direction": "W",
        "id": "MTA_308577",
        "lat": 40.710673,
        "locationType": 0,
        "lon": -73.96693,
        "name": "BROADWAY/WYTHE AV",
        "routeIds": [
            "MTA NYCT_B32",
            "MTA NYCT_Q59"
        ],
        "wheelchairBoarding": "UNKNOWN"
    },
    {
        "code": "309445",
        "direction": "E",
        "id": "MTA_309445",
        "lat": 40.714025,
        "locationType": 0,
        "lon": -73.955914,
        "name": "METROPOLITAN AV/HAVEMEYER ST",
        "routeIds": [
            "MTA NYCT_Q59"
        ],
        "wheelchairBoarding": "UNKNOWN"
    },
    {
        "code": "309446",
        "direction": "E",
        "id": "MTA_309446",
        "lat": 40.714006,
        "locationType": 0,
        "lon": -73.9528,
        "name": "METROPOLITAN AV/RODNEY ST",
        "routeIds": [
            "MTA NYCT_Q59"
        ],
        "wheelchairBoarding": "UNKNOWN"
    },
    {
        "code": "502992",
        "direction": "NE",
        "id": "MTA_502992",
        "lat": 40.736494,
        "locationType": 0,
        "lon": -73.877838,
        "name": "GRAND AV/QUEENS BLVD",
        "routeIds": [
            "MTA NYCT_Q58",
            "MTA NYCT_Q59"
        ],
        "wheelchairBoarding": "UNKNOWN"
    },
    {
        "code": "503241",
        "direction": "W",
        "id": "MTA_503241",
        "lat": 40.716608,
        "locationType": 0,
        "lon": -73.922463,
        "name": "GRAND AV/47 ST",
        "routeIds": [
            "MTA NYCT_Q59"
        ],
        "wheelchairBoarding": "UNKNOWN"
    },
    {
        "code": "503258",
        "direction": "NE",
        "id": "MTA_503258",
        "lat": 40.729453,
        "locationType": 0,
        "lon": -73.889932,
        "name": "GRAND AV/73 ST",
        "routeIds": [
            "MTA NYCT_Q58",
            "MTA NYCT_Q59"
        ],
        "wheelchairBoarding": "UNKNOWN"
    },
    {
        "code": "503468",
        "direction": "NE",
        "id": "MTA_503468",
        "lat": 40.724268,
        "locationType": 0,
        "lon": -73.898362,
        "name": "GRAND AV/66 ST",
        "routeIds": [
            "MTA NYCT_Q58",
            "MTA NYCT_Q59"
        ],
        "wheelchairBoarding": "UNKNOWN"
    },
    {
        "code": "503469",
        "direction": "NE",
        "id": "MTA_503469",
        "lat": 40.725094,
        "locationType": 0,
        "lon": -73.896739,
        "name": "GRAND AV/QUEENS MIDTOWN EXPWY",
        "routeIds": [
            "MTA NYCT_Q58",
            "MTA NYCT_Q59"
        ],
        "wheelchairBoarding": "UNKNOWN"
    },
    {
        "code": "503470",
        "direction": "NE",
        "id": "MTA_503470",
        "lat": 40.726466,
        "locationType": 0,
        "lon": -73.894339,
        "name": "GRAND AV/69 PL",
        "routeIds": [
            "MTA NYCT_Q58",
            "MTA NYCT_Q59"
        ],
        "wheelchairBoarding": "UNKNOWN"
    },
    {
        "code": "503471",
        "direction": "NE",
        "id": "MTA_503471",
        "lat": 40.72776,
        "locationType": 0,
        "lon": -73.892151,
        "name": "GRAND AV/71 ST",
        "routeIds": [
            "MTA NYCT_Q58",
            "MTA NYCT_Q59"
        ],
        "wheelchairBoarding": "UNKNOWN"
    },
    {
        "code": "503472",
        "direction": "E",
        "id": "MTA_503472",
        "lat": 40.730283,
        "locationType": 0,
        "lon": -73.887154,
        "name": "GRAND AV/74 ST",
        "routeIds": [
            "MTA NYCT_Q58",
            "MTA NYCT_Q59"
        ],
        "wheelchairBoarding": "UNKNOWN"
    },
    {
        "code": "503473",
        "direction": "NE",
        "id": "MTA_503473",
        "lat": 40.731137,
        "locationType": 0,
        "lon": -73.885277,
        "name": "GRAND AV/79 ST",
        "routeIds": [
            "MTA NYCT_Q58",
            "MTA NYCT_Q59"
        ],
        "wheelchairBoarding": "UNKNOWN"
    },
    {
        "code": "503475",
        "direction": "NE",
        "id": "MTA_503475",
        "lat": 40.733451,
        "locationType": 0,
        "lon": -73.883824,
        "name": "GRAND AV/84 ST",
        "routeIds": [
            "MTA NYCT_Q58",
            "MTA NYCT_Q59"
        ],
        "wheelchairBoarding": "UNKNOWN"
    },
    {
        "code": "503476",
        "direction": "NE",
        "id": "MTA_503476",
        "lat": 40.735058,
        "locationType": 0,
        "lon": -73.881807,
        "name": "GRAND AV/HASPEL ST",
        "routeIds": [
            "MTA NYCT_Q58",
            "MTA NYCT_Q59"
        ],
        "wheelchairBoarding": "UNKNOWN"
    },
    {
        "code": "503477",
        "direction": "E",
        "id": "MTA_503477",
        "lat": 40.735806,
        "locationType": 0,
        "lon": -73.880197,
        "name": "GRAND AV/VAN HORN ST",
        "routeIds": [
            "MTA NYCT_Q58",
            "MTA NYCT_Q59"
        ],
        "wheelchairBoarding": "UNKNOWN"
    },
    {
        "code": "503522",
        "direction": "W",
        "id": "MTA_503522",
        "lat": 40.736357,
        "locationType": 0,
        "lon": -73.878318,
        "name": "GRAND AV/QUEENS BLVD",
        "routeIds": [
            "MTA NYCT_Q58",
            "MTA NYCT_Q59"
        ],
        "wheelchairBoarding": "UNKNOWN"
    },
    {
        "code": "503523",
        "direction": "W",
        "id": "MTA_503523",
        "lat": 40.735702,
        "locationType": 0,
        "lon": -73.880889,
        "name": "GRAND AV/GOLDSMITH ST",
        "routeIds": [
            "MTA NYCT_Q58",
            "MTA NYCT_Q59"
        ],
        "wheelchairBoarding": "UNKNOWN"
    },
    {
        "code": "503524",
        "direction": "SW",
        "id": "MTA_503524",
        "lat": 40.734958,
        "locationType": 0,
        "lon": -73.882084,
        "name": "GRAND AV/HASPEL ST",
        "routeIds": [
            "MTA NYCT_Q58",
            "MTA NYCT_Q59"
        ],
        "wheelchairBoarding": "UNKNOWN"
    },
    {
        "code": "503525",
        "direction": "SW",
        "id": "MTA_503525",
        "lat": 40.733361,
        "locationType": 0,
        "lon": -73.884007,
        "name": "GRAND AV/CALAMUS AV",
        "routeIds": [
            "MTA NYCT_Q58",
            "MTA NYCT_Q59"
        ],
        "wheelchairBoarding": "UNKNOWN"
    },
    {
        "code": "503526",
        "direction": "SW",
        "id": "MTA_503526",
        "lat": 40.732141,
        "locationType": 0,
        "lon": -73.88473,
        "name": "GRAND AV/82 ST",
        "routeIds": [
            "MTA NYCT_Q58",
            "MTA NYCT_Q59"
        ],
        "wheelchairBoarding": "UNKNOWN"
    },
    {
        "code": "503527",
        "direction": "SW",
        "id": "MTA_503527",
        "lat": 40.730814,
        "locationType": 0,
        "lon": -73.885954,
        "name": "GRAND AV/79 ST",
        "routeIds": [
            "MTA NYCT_Q58",
            "MTA NYCT_Q59"
        ],
        "wheelchairBoarding": "UNKNOWN"
    },
    {
        "code": "503528",
        "direction": "W",
        "id": "MTA_503528",
        "lat": 40.7301,
        "locationType": 0,
        "lon": -73.888385,
        "name": "GRAND AV/74 ST",
        "routeIds": [
            "MTA NYCT_Q58",
            "MTA NYCT_Q59"
        ],
        "wheelchairBoarding": "UNKNOWN"
    },
    {
        "code": "503529",
        "direction": "SW",
        "id": "MTA_503529",
        "lat": 40.729251,
        "locationType": 0,
        "lon": -73.890277,
        "name": "GRAND AV/73 ST",
        "routeIds": [
            "MTA NYCT_Q58",
            "MTA NYCT_Q59"
        ],
        "wheelchairBoarding": "UNKNOWN"
    },
    {
        "code": "503530",
        "direction": "SW",
        "id": "MTA_503530",
        "lat": 40.728025,
        "locationType": 0,
        "lon": -73.891827,
        "name": "GRAND AV/72 ST",
        "routeIds": [
            "MTA NYCT_Q58",
            "MTA NYCT_Q59"
        ],
        "wheelchairBoarding": "UNKNOWN"
    },
    {
        "code": "503531",
        "direction": "SW",
        "id": "MTA_503531",
        "lat": 40.72635,
        "locationType": 0,
        "lon": -73.894688,
        "name": "GRAND AV/69 PL",
        "routeIds": [
            "MTA NYCT_Q58",
            "MTA NYCT_Q59"
        ],
        "wheelchairBoarding": "UNKNOWN"
    },
    {
        "code": "503532",
        "direction": "SW",
        "id": "MTA_503532",
        "lat": 40.725716,
        "locationType": 0,
        "lon": -73.89579,
        "name": "GRAND AV/BORDEN AV",
        "routeIds": [
            "MTA NYCT_Q58",
            "MTA NYCT_Q59"
        ],
        "wheelchairBoarding": "UNKNOWN"
    },
    {
        "code": "503533",
        "direction": "SW",
        "id": "MTA_503533",
        "lat": 40.724911,
        "locationType": 0,
        "lon": -73.897316,
        "name": "GRAND AV/QUEENS MIDTOWN EXPWY",
        "routeIds": [
            "MTA NYCT_Q58",
            "MTA NYCT_Q59"
        ],
        "wheelchairBoarding": "UNKNOWN"
    },
    {
        "code": "503535",
        "direction": "SW",
        "id": "MTA_503535",
        "lat": 40.723649,
        "locationType": 0,
        "lon": -73.8998,
        "name": "GRAND AV/REMSEN PL",
        "routeIds": [
            "MTA NYCT_Q58",
            "MTA NYCT_Q59"
        ],
        "wheelchairBoarding": "UNKNOWN"
    },
    {
        "code": "503636",
        "direction": "SW",
        "id": "MTA_503636",
        "lat": 40.735004,
        "locationType": 0,
        "lon": -73.874304,
        "name": "56 AV/QUEENS BLVD",
        "routeIds": [
            "MTA NYCT_Q59"
        ],
        "wheelchairBoarding": "UNKNOWN"
    },
    {
        "code": "503644",
        "direction": "N",
        "id": "MTA_503644",
        "lat": 40.734905,
        "locationType": 0,
        "lon": -73.87228,
        "name": "90 ST/57 AV",
        "routeIds": [
            "MTABC_Q29",
            "MTA NYCT_Q59"
        ],
        "wheelchairBoarding": "UNKNOWN"
    },
    {
        "code": "503690",
        "direction": "E",
        "id": "MTA_503690",
        "lat": 40.716777,
        "locationType": 0,
        "lon": -73.921382,
        "name": "GRAND AV/47 ST",
        "routeIds": [
            "MTA NYCT_Q59"
        ],
        "wheelchairBoarding": "UNKNOWN"
    },
    {
        "code": "503734",
        "direction": "E",
        "id": "MTA_503734",
        "lat": 40.718453,
        "locationType": 0,
        "lon": -73.915286,
        "name": "GRAND AV/54 ST",
        "routeIds": [
            "MTA NYCT_Q59"
        ],
        "wheelchairBoarding": "UNKNOWN"
    },
    {
        "code": "503739",
        "direction": "E",
        "id": "MTA_503739",
        "lat": 40.721288,
        "locationType": 0,
        "lon": -73.905862,
        "name": "GRAND AV/58 AV",
        "routeIds": [
            "MTA NYCT_Q59"
        ],
        "wheelchairBoarding": "UNKNOWN"
    },
    {
        "code": "503740",
        "direction": "E",
        "id": "MTA_503740",
        "lat": 40.720604,
        "locationType": 0,
        "lon": -73.907719,
        "name": "GRAND AV/59 ST",
        "routeIds": [
            "MTABC_Q39",
            "MTA NYCT_Q59"
        ],
        "wheelchairBoarding": "UNKNOWN"
    },
    {
        "code": "503741",
        "direction": "W",
        "id": "MTA_503741",
        "lat": 40.720409,
        "locationType": 0,
        "lon": -73.908613,
        "name": "GRAND AV/59 ST",
        "routeIds": [
            "MTABC_Q39",
            "MTA NYCT_Q59"
        ],
        "wheelchairBoarding": "UNKNOWN"
    },
    {
        "code": "503742",
        "direction": "W",
        "id": "MTA_503742",
        "lat": 40.721939,
        "locationType": 0,
        "lon": -73.904314,
        "name": "GRAND AV/61 ST",
        "routeIds": [
            "MTA NYCT_Q59"
        ],
        "wheelchairBoarding": "UNKNOWN"
    },
    {
        "code": "503743",
        "direction": "E",
        "id": "MTA_503743",
        "lat": 40.722723,
        "locationType": 0,
        "lon": -73.901821,
        "name": "GRAND AV/64 ST",
        "routeIds": [
            "MTA NYCT_B57",
            "MTA NYCT_Q59"
        ],
        "wheelchairBoarding": "UNKNOWN"
    },
    {
        "code": "503747",
        "direction": "W",
        "id": "MTA_503747",
        "lat": 40.722661,
        "locationType": 0,
        "lon": -73.902289,
        "name": "GRAND AV/MASPETH AV",
        "routeIds": [
            "MTA NYCT_Q59"
        ],
        "wheelchairBoarding": "UNKNOWN"
    },
    {
        "code": "503748",
        "direction": "E",
        "id": "MTA_503748",
        "lat": 40.717678,
        "locationType": 0,
        "lon": -73.918144,
        "name": "GRAND AV/PAGE PL",
        "routeIds": [
            "MTA NYCT_Q59"
        ],
        "wheelchairBoarding": "UNKNOWN"
    },
    {
        "code": "503749",
        "direction": "W",
        "id": "MTA_503749",
        "lat": 40.717672,
        "locationType": 0,
        "lon": -73.918518,
        "name": "GRAND AV/PAGE PL",
        "routeIds": [
            "MTA NYCT_Q59"
        ],
        "wheelchairBoarding": "UNKNOWN"
    },
    {
        "code": "503750",
        "direction": "E",
        "id": "MTA_503750",
        "lat": 40.719663,
        "locationType": 0,
        "lon": -73.910887,
        "name": "GRAND AV/RUST ST",
        "routeIds": [
            "MTABC_Q39",
            "MTA NYCT_Q59"
        ],
        "wheelchairBoarding": "UNKNOWN"
    },
    {
        "code": "503751",
        "direction": "W",
        "id": "MTA_503751",
        "lat": 40.719698,
        "locationType": 0,
        "lon": -73.911226,
        "name": "GRAND AV/RUST ST",
        "routeIds": [
            "MTA NYCT_Q59"
        ],
        "wheelchairBoarding": "UNKNOWN"
    },
    {
        "code": "504072",
        "direction": "W",
        "id": "MTA_504072",
        "lat": 40.721059,
        "locationType": 0,
        "lon": -73.906724,
        "name": "GRAND AV/58 AV",
        "routeIds": [
            "MTABC_Q39",
            "MTA NYCT_Q59"
        ],
        "wheelchairBoarding": "UNKNOWN"
    },
    {
        "code": "504398",
        "direction": "SE",
        "id": "MTA_504398",
        "lat": 40.735251,
        "locationType": 0,
        "lon": -73.875959,
        "name": "QUEENS BLVD/55 AV",
        "routeIds": [
            "MTA NYCT_Q59",
            "MTABC_Q60"
        ],
        "wheelchairBoarding": "UNKNOWN"
    },
    {
        "code": "504399",
        "direction": "E",
        "id": "MTA_504399",
        "lat": 40.734442,
        "locationType": 0,
        "lon": -73.874463,
        "name": "QUEENS BLVD/56 AV",
        "routeIds": [
            "MTA NYCT_Q59"
        ],
        "wheelchairBoarding": "UNKNOWN"
    },
    {
        "code": "504400",
        "direction": "E",
        "id": "MTA_504400",
        "lat": 40.733302,
        "locationType": 0,
        "lon": -73.870855,
        "name": "QUEENS BLVD/WOODHAVEN BLVD",
        "routeIds": [
            "MTA NYCT_Q59",
            "MTABC_Q60"
        ],
        "wheelchairBoarding": "UNKNOWN"
    },
    {
        "code": "504403",
        "direction": "W",
        "id": "MTA_504403",
        "lat": 40.731182,
        "locationType": 0,
        "lon": -73.864617,
        "name": "QUEENS BLVD/62 DR",
        "routeIds": [
            "MTA NYCT_Q59",
            "MTABC_Q60"
        ],
        "wheelchairBoarding": "UNKNOWN"
    },
    {
        "code": "504404",
        "direction": "W",
        "id": "MTA_504404",
        "lat": 40.733941,
        "locationType": 0,
        "lon": -73.870836,
        "name": "QUEENS BLVD/59 AV",
        "routeIds": [
            "MTABC_Q29",
            "MTA NYCT_Q59",
            "MTABC_Q60"
        ],
        "wheelchairBoarding": "UNKNOWN"
    },
    {
        "code": "504455",
        "direction": "SW",
        "id": "MTA_504455",
        "lat": 40.724156,
        "locationType": 0,
        "lon": -73.898774,
        "name": "GRAND AV/HAMILTON PL",
        "routeIds": [
            "MTA NYCT_Q58",
            "MTA NYCT_Q59"
        ],
        "wheelchairBoarding": "UNKNOWN"
    },
    {
        "code": "504491",
        "direction": "E",
        "id": "MTA_504491",
        "lat": 40.72173,
        "locationType": 0,
        "lon": -73.904598,
        "name": "GRAND AV/61 ST",
        "routeIds": [
            "MTA NYCT_Q59"
        ],
        "wheelchairBoarding": "UNKNOWN"
    },
    {
        "code": "504546",
        "direction": "W",
        "id": "MTA_504546",
        "lat": 40.718616,
        "locationType": 0,
        "lon": -73.915118,
        "name": "GRAND AV/54 ST",
        "routeIds": [
            "MTA NYCT_Q59"
        ],
        "wheelchairBoarding": "UNKNOWN"
    },
    {
        "code": "901124",
        "direction": "SW",
        "id": "MTA_901124",
        "lat": 40.714979,
        "locationType": 0,
        "lon": -73.964866,
        "name": "WYTHE AV/S 1 ST",
        "routeIds": [
            "MTA NYCT_B32",
            "MTA NYCT_Q59"
        ],
        "wheelchairBoarding": "UNKNOWN"
    },
    {
        "code": "901325",
        "direction": "W",
        "id": "MTA_901325",
        "lat": 40.709168,
        "locationType": 0,
        "lon": -73.959974,
        "name": "BROADWAY/ROEBLING ST",
        "routeIds": [
            "MTA NYCT_B32",
            "MTA NYCT_Q59"
        ],
        "wheelchairBoarding": "UNKNOWN"
    },
    {
        "code": "904052",
        "direction": "E",
        "id": "MTA_904052",
        "lat": 40.732855,
        "locationType": 0,
        "lon": -73.866873,
        "name": "HORACE HARDING SERVICE RD SOUTH/QUEENS BLVD",
        "routeIds": [
            "MTA NYCT_Q59"
        ],
        "wheelchairBoarding": "UNKNOWN"
    },
    {
        "code": "904053",
        "direction": "SE",
        "id": "MTA_904053",
        "lat": 40.732959,
        "locationType": 0,
        "lon": -73.864021,
        "name": "JUNCTION BLVD/HORACE HARDING SERVICE RD SOUTH",
        "routeIds": [
            "MTA NYCT_Q59"
        ],
        "wheelchairBoarding": "UNKNOWN"
    },
    {
        "code": "904249",
        "direction": "W",
        "id": "MTA_904249",
        "lat": 40.71942,
        "locationType": 0,
        "lon": -73.912184,
        "name": "Grand Av/57 St",
        "routeIds": [
            "MTA NYCT_Q59"
        ],
        "wheelchairBoarding": "UNKNOWN"
    }
]