[
    {
        "code": "301029",
        "direction": "W",
        "id": "MTA_301029",
        "lat": 40.669579,
        "locationType": 0,
        "lon": -73.8634,
        "name": "LINDEN BLVD/ELDERT LN",
        "routeIds": [
            "MTA NYCT_B13",
            "MTA NYCT_B14",
            "MTA NYCT_B15",
            "MTA NYCT_B20",
            "MTABC_BM5"
        ],
        "wheelchairBoarding": "UNKNOWN"
    },
    {
        "code": "301030",
        "direction": "W",
        "id": "MTA_301030",
        "lat": 40.669378,
        "locationType": 0,
        "lon": -73.864735,
        "name": "LINDEN BLVD/SHERIDAN AV",
        "routeIds": [
            "MTA NYCT_B13",
            "MTA NYCT_B14",
            "MTA NYCT_B15",
            "MTA NYCT_B20"
        ],
        "wheelchairBoarding": "UNKNOWN"
    },
    {
        "code": "301121",
        "direction": "S",
        "id": "MTA_301121",
        "lat": 40.667812,
        "locationType": 0,
        "lon": -73.922758,
        "name": "RALPH AV/EASTERN PKWY",
        "routeIds": [
            "MTA NYCT_B14"
        ],
        "wheelchairBoarding": "UNKNOWN"
    },
    {
        "code": "301333",
        "direction": "NE",
        "id": "MTA_301333",
        "lat": 40.667597,
        "locationType": 0,
        "lon": -73.92141,
        "name": "EAST NEW YORK AV/UNION ST",
        "routeIds": [
            "MTA NYCT_B12",
            "MTA NYCT_B14"
        ],
        "wheelchairBoarding": "UNKNOWN"
    },
    {
        "code": "301334",
        "direction": "E",
        "id": "MTA_301334",
        "lat": 40.668304,
        "locationType": 0,
        "lon": -73.919571,
        "name": "PITKIN AV/HOWARD AV",
        "routeIds": [
            "MTA NYCT_B14"
        ],
        "wheelchairBoarding": "UNKNOWN"
    },
    {
        "code": "301427",
        "direction": "E",
        "id": "MTA_301427",
        "lat": 40.673037,
        "locationType": 0,
        "lon": -73.86964,
        "name": "SUTTER AV/CRESCENT ST",
        "routeIds": [
            "MTA NYCT_B14"
        ],
        "wheelchairBoarding": "UNKNOWN"
    },
    {
        "code": "301516",
        "direction": "E",
        "id": "MTA_301516",
        "lat": 40.668367,
        "locationType": 0,
        "lon": -73.927927,
        "name": "EASTERN PKWY/ROCHESTER AV",
        "routeIds": [
            "MTA NYCT_B14"
        ],
        "wheelchairBoarding": "UNKNOWN"
    },
    {
        "code": "301517",
        "direction": "E",
        "id": "MTA_301517",
        "lat": 40.668256,
        "locationType": 0,
        "lon": -73.925857,
        "name": "EASTERN PKWY/BUFFALO AV",
        "routeIds": [
            "MTA NYCT_B14"
        ],
        "wheelchairBoarding": "UNKNOWN"
    },
    {
        "code": "301521",
        "direction": "E",
        "id": "MTA_301521",
        "lat": 40.668716,
        "locationType": 0,
        "lon": -73.916831,
        "name": "PITKIN AV/SARATOGA AV",
        "routeIds": [
            "MTA NYCT_B7",
            "MTA NYCT_B12",
            "MTA NYCT_B14"
        ],
        "wheelchairBoarding": "UNKNOWN"
    },
    {
        "code": "301522",
        "direction": "E",
        "id": "MTA_301522",
        "lat": 40.668984,
        "locationType": 0,
        "lon": -73.915036,
        "name": "PITKIN AV/HERZL ST",
        "routeIds": [
            "MTA NYCT_B12",
            "MTA NYCT_B14"
        ],
        "wheelchairBoarding": "UNKNOWN"
    },
    {
        "code": "301530",
        "direction": "E",
        "id": "MTA_301530",
        "lat": 40.664647,
        "locationType": 0,
        "lon": -73.905103,
        "name": "DUMONT AV/MOTHER GASTON BLVD",
        "routeIds": [
            "MTA NYCT_B14"
        ],
        "wheelchairBoarding": "UNKNOWN"
    },
    {
        "code": "301531",
        "direction": "N",
        "id": "MTA_301531",
        "lat": 40.6654,
        "locationType": 0,
        "lon": -73.902785,
        "name": "POWELL ST/DUMONT AV",
        "routeIds": [
            "MTA NYCT_B14"
        ],
        "wheelchairBoarding": "UNKNOWN"
    },
    {
        "code": "301532",
        "direction": "N",
        "id": "MTA_301532",
        "lat": 40.666938,
        "locationType": 0,
        "lon": -73.903175,
        "name": "POWELL ST/BLAKE AV",
        "routeIds": [
            "MTA NYCT_B14"
        ],
        "wheelchairBoarding": "UNKNOWN"
    },
    {
        "code": "301534",
        "direction": "E",
        "id": "MTA_301534",
        "lat": 40.668134,
        "locationType": 0,
        "lon": -73.903109,
        "name": "SUTTER AV/POWELL ST",
        "routeIds": [
            "MTA NYCT_B14"
        ],
        "wheelchairBoarding": "UNKNOWN"
    },
    {
        "code": "301535",
        "direction": "E",
        "id": "MTA_301535",
        "lat": 40.668405,
        "locationType": 0,
        "lon": -73.901302,
        "name": "SUTTER AV/VAN SINDEREN AV",
        "routeIds": [
            "MTA NYCT_B14"
        ],
        "wheelchairBoarding": "UNKNOWN"
    },
    {
        "code": "301536",
        "direction": "E",
        "id": "MTA_301536",
        "lat": 40.668825,
        "locationType": 0,
        "lon": -73.898468,
        "name": "SUTTER AV/WILLIAMS AV",
        "routeIds": [
            "MTA NYCT_B14"
        ],
        "wheelchairBoarding": "UNKNOWN"
    },
    {
        "code": "301537",
        "direction": "E",
        "id": "MTA_301537",
        "lat": 40.669087,
        "locationType": 0,
        "lon": -73.896694,
        "name": "SUTTER AV/GEORGIA AV",
        "routeIds": [
            "MTA NYCT_B14"
        ],
        "wheelchairBoarding": "UNKNOWN"
    },
    {
        "code": "301538",
        "direction": "E",
        "id": "MTA_301538",
        "lat": 40.66937,
        "locationType": 0,
        "lon": -73.894783,
        "name": "SUTTER AV/PENNSYLVANIA AV",
        "routeIds": [
            "MTA NYCT_B14"
        ],
        "wheelchairBoarding": "UNKNOWN"
    },
    {
        "code": "301539",
        "direction": "E",
        "id": "MTA_301539",
        "lat": 40.669782,
        "locationType": 0,
        "lon": -73.892011,
        "name": "SUTTER AV/WYONA ST",
        "routeIds": [
            "MTA NYCT_B14"
        ],
        "wheelchairBoarding": "UNKNOWN"
    },
    {
        "code": "301540",
        "direction": "E",
        "id": "MTA_301540",
        "lat": 40.670061,
        "locationType": 0,
        "lon": -73.890154,
        "name": "SUTTER AV/MILLER AV",
        "routeIds": [
            "MTA NYCT_B14"
        ],
        "wheelchairBoarding": "UNKNOWN"
    },
    {
        "code": "301541",
        "direction": "E",
        "id": "MTA_301541",
        "lat": 40.670328,
        "locationType": 0,
        "lon": -73.888401,
        "name": "SUTTER AV/HENDRIX ST",
        "routeIds": [
            "MTA NYCT_B14"
        ],
        "wheelchairBoarding": "UNKNOWN"
    },
    {
        "code": "301542",
        "direction": "E",
        "id": "MTA_301542",
        "lat": 40.670598,
        "locationType": 0,
        "lon": -73.886588,
        "name": "SUTTER AV/BARBEY ST",
        "routeIds": [
            "MTA NYCT_B14"
        ],
        "wheelchairBoarding": "UNKNOWN"
    },
    {
        "code": "301543",
        "direction": "E",
        "id": "MTA_301543",
        "lat": 40.670851,
        "locationType": 0,
        "lon": -73.884868,
        "name": "SUTTER AV/WARWICK ST",
        "routeIds": [
            "MTA NYCT_B14"
        ],
        "wheelchairBoarding": "UNKNOWN"
    },
    {
        "code": "301544",
        "direction": "E",
        "id": "MTA_301544",
        "lat": 40.671097,
        "locationType": 0,
        "lon": -73.883213,
        "name": "SUTTER AV/CLEVELAND ST",
        "routeIds": [
            "MTA NYCT_B14"
        ],
        "wheelchairBoarding": "UNKNOWN"
    },
    {
        "code": "301545",
        "direction": "E",
        "id": "MTA_301545",
        "lat": 40.671266,
        "locationType": 0,
        "lon": -73.882062,
        "name": "SUTTER AV/LINWOOD ST",
        "routeIds": [
            "MTA NYCT_B14"
        ],
        "wheelchairBoarding": "UNKNOWN"
    },
    {
        "code": "301546",
        "direction": "E",
        "id": "MTA_301546",
        "lat": 40.671601,
        "locationType": 0,
        "lon": -73.879791,
        "name": "SUTTER AV/SHEPHERD AV",
        "routeIds": [
            "MTA NYCT_B14"
        ],
        "wheelchairBoarding": "UNKNOWN"
    },
    {
        "code": "301547",
        "direction": "E",
        "id": "MTA_301547",
        "lat": 40.671854,
        "locationType": 0,
        "lon": -73.877952,
        "name": "SUTTER AV/ATKINS AV",
        "routeIds": [
            "MTA NYCT_B14"
        ],
        "wheelchairBoarding": "UNKNOWN"
    },
    {
        "code": "301548",
        "direction": "E",
        "id": "MTA_301548",
        "lat": 40.672127,
        "locationType": 0,
        "lon": -73.876123,
        "name": "SUTTER AV/MILFORD ST",
        "routeIds": [
            "MTA NYCT_B14"
        ],
        "wheelchairBoarding": "UNKNOWN"
    },
    {
        "code": "301549",
        "direction": "E",
        "id": "MTA_301549",
        "lat": 40.672353,
        "locationType": 0,
        "lon": -73.874256,
        "name": "SUTTER AV/FOUNTAIN AV",
        "routeIds": [
            "MTA NYCT_B14"
        ],
        "wheelchairBoarding": "UNKNOWN"
    },
    {
        "code": "301550",
        "direction": "E",
        "id": "MTA_301550",
        "lat": 40.67281,
        "locationType": 0,
        "lon": -73.871152,
        "name": "SUTTER AV/EUCLID AV",
        "routeIds": [
            "MTA NYCT_B13",
            "MTA NYCT_B14"
        ],
        "wheelchairBoarding": "UNKNOWN"
    },
    {
        "code": "301552",
        "direction": "E",
        "id": "MTA_301552",
        "lat": 40.673527,
        "locationType": 0,
        "lon": -73.866348,
        "name": "SUTTER AV/LINCOLN AV",
        "routeIds": [
            "MTA NYCT_B14"
        ],
        "wheelchairBoarding": "UNKNOWN"
    },
    {
        "code": "301553",
        "direction": "E",
        "id": "MTA_301553",
        "lat": 40.673794,
        "locationType": 0,
        "lon": -73.864501,
        "name": "SUTTER AV/GRANT AV",
        "routeIds": [
            "MTA NYCT_B14"
        ],
        "wheelchairBoarding": "UNKNOWN"
    },
    {
        "code": "301554",
        "direction": "S",
        "id": "MTA_301554",
        "lat": 40.673898,
        "locationType": 0,
        "lon": -73.862079,
        "name": "DREW ST/SUTTER AV",
        "routeIds": [
            "MTA NYCT_B14"
        ],
        "wheelchairBoarding": "UNKNOWN"
    },
    {
        "code": "301555",
        "direction": "S",
        "id": "MTA_301555",
        "lat": 40.670853,
        "locationType": 0,
        "lon": -73.861339,
        "name": "DREW ST/DUMONT AV",
        "routeIds": [
            "MTA NYCT_B14"
        ],
        "wheelchairBoarding": "UNKNOWN"
    },
    {
        "code": "301556",
        "direction": "S",
        "id": "MTA_301556",
        "lat": 40.669972,
        "locationType": 0,
        "lon": -73.861121,
        "name": "DREW ST/LINDEN BLVD",
        "routeIds": [
            "MTA NYCT_B14"
        ],
        "wheelchairBoarding": "UNKNOWN"
    },
    {
        "code": "301560",
        "direction": "N",
        "id": "MTA_301560",
        "lat": 40.672,
        "locationType": 0,
        "lon": -73.866189,
        "name": "LINCOLN AV/BLAKE AV",
        "routeIds": [
            "MTA NYCT_B14"
        ],
        "wheelchairBoarding": "UNKNOWN"
    },
    {
        "code": "301561",
        "direction": "W",
        "id": "MTA_301561",
        "lat": 40.673408,
        "locationType": 0,
        "lon": -73.868057,
        "name": "SUTTER AV/AUTUMN AV",
        "routeIds": [
            "MTA NYCT_B14"
        ],
        "wheelchairBoarding": "UNKNOWN"
    },
    {
        "code": "301562",
        "direction": "W",
        "id": "MTA_301562",
        "lat": 40.673127,
        "locationType": 0,
        "lon": -73.869917,
        "name": "SUTTER AV/CRESCENT ST",
        "routeIds": [
            "MTA NYCT_B14"
        ],
        "wheelchairBoarding": "UNKNOWN"
    },
    {
        "code": "301563",
        "direction": "W",
        "id": "MTA_301563",
        "lat": 40.672948,
        "locationType": 0,
        "lon": -73.87118,
        "name": "SUTTER AV/EUCLID AV",
        "routeIds": [
            "MTA NYCT_B14"
        ],
        "wheelchairBoarding": "UNKNOWN"
    },
    {
        "code": "301564",
        "direction": "W",
        "id": "MTA_301564",
        "lat": 40.672468,
        "locationType": 0,
        "lon": -73.874537,
        "name": "SUTTER AV/FOUNTAIN AV",
        "routeIds": [
            "MTA NYCT_B14"
        ],
        "wheelchairBoarding": "UNKNOWN"
    },
    {
        "code": "301565",
        "direction": "W",
        "id": "MTA_301565",
        "lat": 40.672258,
        "locationType": 0,
        "lon": -73.875957,
        "name": "SUTTER AV/LOGAN ST",
        "routeIds": [
            "MTA NYCT_B14"
        ],
        "wheelchairBoarding": "UNKNOWN"
    },
    {
        "code": "301566",
        "direction": "W",
        "id": "MTA_301566",
        "lat": 40.672,
        "locationType": 0,
        "lon": -73.877796,
        "name": "SUTTER AV/MONTAUK AV",
        "routeIds": [
            "MTA NYCT_B14"
        ],
        "wheelchairBoarding": "UNKNOWN"
    },
    {
        "code": "301567",
        "direction": "W",
        "id": "MTA_301567",
        "lat": 40.671724,
        "locationType": 0,
        "lon": -73.879661,
        "name": "SUTTER AV/BERRIMAN ST",
        "routeIds": [
            "MTA NYCT_B14"
        ],
        "wheelchairBoarding": "UNKNOWN"
    },
    {
        "code": "301568",
        "direction": "W",
        "id": "MTA_301568",
        "lat": 40.671463,
        "locationType": 0,
        "lon": -73.881464,
        "name": "SUTTER AV/ESSEX ST",
        "routeIds": [
            "MTA NYCT_B14"
        ],
        "wheelchairBoarding": "UNKNOWN"
    },
    {
        "code": "301569",
        "direction": "W",
        "id": "MTA_301569",
        "lat": 40.671215,
        "locationType": 0,
        "lon": -73.883137,
        "name": "SUTTER AV/ELTON ST",
        "routeIds": [
            "MTA NYCT_B14"
        ],
        "wheelchairBoarding": "UNKNOWN"
    },
    {
        "code": "301570",
        "direction": "W",
        "id": "MTA_301570",
        "lat": 40.670975,
        "locationType": 0,
        "lon": -73.884767,
        "name": "SUTTER AV/ASHFORD ST",
        "routeIds": [
            "MTA NYCT_B14"
        ],
        "wheelchairBoarding": "UNKNOWN"
    },
    {
        "code": "301571",
        "direction": "W",
        "id": "MTA_301571",
        "lat": 40.670716,
        "locationType": 0,
        "lon": -73.886494,
        "name": "SUTTER AV/JEROME ST",
        "routeIds": [
            "MTA NYCT_B14"
        ],
        "wheelchairBoarding": "UNKNOWN"
    },
    {
        "code": "301572",
        "direction": "W",
        "id": "MTA_301572",
        "lat": 40.67044,
        "locationType": 0,
        "lon": -73.888351,
        "name": "SUTTER AV/SCHENCK AV",
        "routeIds": [
            "MTA NYCT_B14"
        ],
        "wheelchairBoarding": "UNKNOWN"
    },
    {
        "code": "301573",
        "direction": "W",
        "id": "MTA_301573",
        "lat": 40.670189,
        "locationType": 0,
        "lon": -73.890081,
        "name": "SUTTER AV/VAN SICLEN AV",
        "routeIds": [
            "MTA NYCT_B14"
        ],
        "wheelchairBoarding": "UNKNOWN"
    },
    {
        "code": "301574",
        "direction": "W",
        "id": "MTA_301574",
        "lat": 40.669925,
        "locationType": 0,
        "lon": -73.891899,
        "name": "SUTTER AV/BRADFORD ST",
        "routeIds": [
            "MTA NYCT_B14"
        ],
        "wheelchairBoarding": "UNKNOWN"
    },
    {
        "code": "301575",
        "direction": "W",
        "id": "MTA_301575",
        "lat": 40.669658,
        "locationType": 0,
        "lon": -73.893712,
        "name": "SUTTER AV/VERMONT ST",
        "routeIds": [
            "MTA NYCT_B14"
        ],
        "wheelchairBoarding": "UNKNOWN"
    },
    {
        "code": "301576",
        "direction": "W",
        "id": "MTA_301576",
        "lat": 40.669366,
        "locationType": 0,
        "lon": -73.895667,
        "name": "SUTTER AV/PENNSYLVANIA AV",
        "routeIds": [
            "MTA NYCT_B14"
        ],
        "wheelchairBoarding": "UNKNOWN"
    },
    {
        "code": "301577",
        "direction": "W",
        "id": "MTA_301577",
        "lat": 40.668957,
        "locationType": 0,
        "lon": -73.898436,
        "name": "SUTTER AV/ALABAMA AV",
        "routeIds": [
            "MTA NYCT_B14"
        ],
        "wheelchairBoarding": "UNKNOWN"
    },
    {
        "code": "301578",
        "direction": "W",
        "id": "MTA_301578",
        "lat": 40.668675,
        "locationType": 0,
        "lon": -73.900329,
        "name": "SUTTER AV/HINSDALE ST",
        "routeIds": [
            "MTA NYCT_B14"
        ],
        "wheelchairBoarding": "UNKNOWN"
    },
    {
        "code": "301579",
        "direction": "W",
        "id": "MTA_301579",
        "lat": 40.668403,
        "locationType": 0,
        "lon": -73.902085,
        "name": "SUTTER AV/VAN SINDEREN AV",
        "routeIds": [
            "MTA NYCT_B14"
        ],
        "wheelchairBoarding": "UNKNOWN"
    },
    {
        "code": "301580",
        "direction": "S",
        "id": "MTA_301580",
        "lat": 40.667997,
        "locationType": 0,
        "lon": -73.902622,
        "name": "JUNIUS ST/SUTTER AV",
        "routeIds": [
            "MTA NYCT_B14",
            "MTA NYCT_L91"
        ],
        "wheelchairBoarding": "UNKNOWN"
    },
    {
        "code": "301581",
        "direction": "S",
        "id": "MTA_301581",
        "lat": 40.666388,
        "locationType": 0,
        "lon": -73.902214,
        "name": "JUNIUS ST/BLAKE AV",
        "routeIds": [
            "MTA NYCT_B14"
        ],
        "wheelchairBoarding": "UNKNOWN"
    },
    {
        "code": "301582",
        "direction": "W",
        "id": "MTA_301582",
        "lat": 40.665178,
        "locationType": 0,
        "lon": -73.902327,
        "name": "DUMONT AV/JUNIUS ST",
        "routeIds": [
            "MTA NYCT_B14"
        ],
        "wheelchairBoarding": "UNKNOWN"
    },
    {
        "code": "301583",
        "direction": "W",
        "id": "MTA_301583",
        "lat": 40.665088,
        "locationType": 0,
        "lon": -73.903218,
        "name": "DUMONT AV/POWELL ST",
        "routeIds": [
            "MTA NYCT_B14"
        ],
        "wheelchairBoarding": "UNKNOWN"
    },
    {
        "code": "301585",
        "direction": "N",
        "id": "MTA_301585",
        "lat": 40.666515,
        "locationType": 0,
        "lon": -73.905915,
        "name": "MOTHER GASTON BLVD/BLAKE AV",
        "routeIds": [
            "MTA NYCT_B14"
        ],
        "wheelchairBoarding": "UNKNOWN"
    },
    {
        "code": "301586",
        "direction": "N",
        "id": "MTA_301586",
        "lat": 40.668068,
        "locationType": 0,
        "lon": -73.906331,
        "name": "MOTHER GASTON BLVD/SUTTER AV",
        "routeIds": [
            "MTA NYCT_B14"
        ],
        "wheelchairBoarding": "UNKNOWN"
    },
    {
        "code": "301588",
        "direction": "N",
        "id": "MTA_301588",
        "lat": 40.669326,
        "locationType": 0,
        "lon": -73.906658,
        "name": "MOTHER GASTON BLVD/BELMONT AV",
        "routeIds": [
            "MTA NYCT_B14"
        ],
        "wheelchairBoarding": "UNKNOWN"
    },
    {
        "code": "301589",
        "direction": "W",
        "id": "MTA_301589",
        "lat": 40.67023,
        "locationType": 0,
        "lon": -73.907496,
        "name": "PITKIN AV/MOTHER GASTON BLVD",
        "routeIds": [
            "MTA NYCT_B14"
        ],
        "wheelchairBoarding": "UNKNOWN"
    },
    {
        "code": "301590",
        "direction": "W",
        "id": "MTA_301590",
        "lat": 40.669965,
        "locationType": 0,
        "lon": -73.909288,
        "name": "PITKIN AV/OSBORN ST",
        "routeIds": [
            "MTA NYCT_B14"
        ],
        "wheelchairBoarding": "UNKNOWN"
    },
    {
        "code": "301591",
        "direction": "W",
        "id": "MTA_301591",
        "lat": 40.669678,
        "locationType": 0,
        "lon": -73.911206,
        "name": "PITKIN AV/ROCKAWAY AV",
        "routeIds": [
            "MTA NYCT_B12",
            "MTA NYCT_B14"
        ],
        "wheelchairBoarding": "UNKNOWN"
    },
    {
        "code": "301593",
        "direction": "W",
        "id": "MTA_301593",
        "lat": 40.669124,
        "locationType": 0,
        "lon": -73.91492,
        "name": "PITKIN AV/AMBOY ST",
        "routeIds": [
            "MTA NYCT_B12",
            "MTA NYCT_B14"
        ],
        "wheelchairBoarding": "UNKNOWN"
    },
    {
        "code": "301594",
        "direction": "W",
        "id": "MTA_301594",
        "lat": 40.66885,
        "locationType": 0,
        "lon": -73.916762,
        "name": "PITKIN AV/STRAUSS ST",
        "routeIds": [
            "MTA NYCT_B12",
            "MTA NYCT_B14"
        ],
        "wheelchairBoarding": "UNKNOWN"
    },
    {
        "code": "301595",
        "direction": "W",
        "id": "MTA_301595",
        "lat": 40.668646,
        "locationType": 0,
        "lon": -73.918151,
        "name": "PITKIN AV/LEGION ST",
        "routeIds": [
            "MTA NYCT_B14"
        ],
        "wheelchairBoarding": "UNKNOWN"
    },
    {
        "code": "301598",
        "direction": "W",
        "id": "MTA_301598",
        "lat": 40.668725,
        "locationType": 0,
        "lon": -73.925201,
        "name": "EASTERN PKWY/BUFFALO AV",
        "routeIds": [
            "MTA NYCT_B14"
        ],
        "wheelchairBoarding": "UNKNOWN"
    },
    {
        "code": "301599",
        "direction": "W",
        "id": "MTA_301599",
        "lat": 40.668888,
        "locationType": 0,
        "lon": -73.928204,
        "name": "EASTERN PKWY/ROCHESTER AV",
        "routeIds": [
            "MTA NYCT_B14"
        ],
        "wheelchairBoarding": "UNKNOWN"
    },
    {
        "code": "301601",
        "direction": "W",
        "id": "MTA_301601",
        "lat": 40.669191,
        "locationType": 0,
        "lon": -73.933719,
        "name": "EASTERN PKWY/SCHENECTADY AV",
        "routeIds": [
            "MTA NYCT_B14"
        ],
        "wheelchairBoarding": "UNKNOWN"
    },
    {
        "code": "306603",
        "direction": "S",
        "id": "MTA_306603",
        "lat": 40.667388,
        "locationType": 0,
        "lon": -73.906422,
        "name": "MOTHER GASTON BLVD/SUTTER AV",
        "routeIds": [
            "MTA NYCT_B14"
        ],
        "wheelchairBoarding": "UNKNOWN"
    },
    {
        "code": "306604",
        "direction": "S",
        "id": "MTA_306604",
        "lat": 40.666298,
        "locationType": 0,
        "lon": -73.906146,
        "name": "MOTHER GASTON BLVD/BLAKE AV",
        "routeIds": [
            "MTA NYCT_B14"
        ],
        "wheelchairBoarding": "UNKNOWN"
    },
    {
        "code": "306707",
        "direction": "E",
        "id": "MTA_306707",
        "lat": 40.669683,
        "locationType": 0,
        "lon": -73.910341,
        "name": "PITKIN AV/ROCKAWAY AV",
        "routeIds": [
            "MTA NYCT_B14"
        ],
        "wheelchairBoarding": "UNKNOWN"
    },
    {
        "code": "306708",
        "direction": "E",
        "id": "MTA_306708",
        "lat": 40.669956,
        "locationType": 0,
        "lon": -73.908477,
        "name": "PITKIN AV/OSBORN ST",
        "routeIds": [
            "MTA NYCT_B14"
        ],
        "wheelchairBoarding": "UNKNOWN"
    },
    {
        "code": "306709",
        "direction": "S",
        "id": "MTA_306709",
        "lat": 40.669911,
        "locationType": 0,
        "lon": -73.907025,
        "name": "MOTHER GASTON BLVD/PITKIN AV",
        "routeIds": [
            "MTA NYCT_B14"
        ],
        "wheelchairBoarding": "UNKNOWN"
    },
    {
        "code": "306710",
        "direction": "S",
        "id": "MTA_306710",
        "lat": 40.668642,
        "locationType": 0,
        "lon": -73.906705,
        "name": "MOTHER GASTON BLVD/BELMONT AV",
        "routeIds": [
            "MTA NYCT_B14"
        ],
        "wheelchairBoarding": "UNKNOWN"
    },
    {
        "code": "306734",
        "direction": "W",
        "id": "MTA_306734",
        "lat": 40.664763,
        "locationType": 0,
        "lon": -73.905402,
        "name": "DUMONT AV/MOTHER GASTON BLVD",
        "routeIds": [
            "MTA NYCT_B14"
        ],
        "wheelchairBoarding": "UNKNOWN"
    },
    {
        "code": "307004",
        "direction": "E",
        "id": "MTA_307004",
        "lat": 40.668537,
        "locationType": 0,
        "lon": -73.931235,
        "name": "EASTERN PKWY/UTICA AV",
        "routeIds": [
            "MTA NYCT_B14",
            "MTA NYCT_B17"
        ],
        "wheelchairBoarding": "UNKNOWN"
    },
    {
        "code": "307122",
        "direction": "E",
        "id": "MTA_307122",
        "lat": 40.669262,
        "locationType": 0,
        "lon": -73.913114,
        "name": "PITKIN AV/THOMAS S BOYLAND ST",
        "routeIds": [
            "MTA NYCT_B12",
            "MTA NYCT_B14"
        ],
        "wheelchairBoarding": "UNKNOWN"
    },
    {
        "code": "307269",
        "direction": "E",
        "id": "MTA_307269",
        "lat": 40.664717,
        "locationType": 0,
        "lon": -73.862732,
        "name": "POSTAL FACILITY RD/BROOKLYN MAIL FACILITY",
        "routeIds": [
            "MTA NYCT_B13",
            "MTA NYCT_B14"
        ],
        "wheelchairBoarding": "UNKNOWN"
    },
    {
        "code": "307370",
        "direction": "W",
        "id": "MTA_307370",
        "lat": 40.669408,
        "locationType": 0,
        "lon": -73.912998,
        "name": "PITKIN AV/BRISTOL ST",
        "routeIds": [
            "MTA NYCT_B12",
            "MTA NYCT_B14"
        ],
        "wheelchairBoarding": "UNKNOWN"
    },
    {
        "code": "307599",
        "direction": "N",
        "id": "MTA_307599",
        "lat": 40.668189,
        "locationType": 0,
        "lon": -73.862477,
        "name": "ELDERT LN/LORING AV",
        "routeIds": [
            "MTA NYCT_B13",
            "MTA NYCT_B14",
            "MTA NYCT_B15",
            "MTA NYCT_B20"
        ],
        "wheelchairBoarding": "UNKNOWN"
    },
    {
        "code": "307629",
        "direction": "S",
        "id": "MTA_307629",
        "lat": 40.667652,
        "locationType": 0,
        "lon": -73.86246,
        "name": "ELDERT LN/LORING AV",
        "routeIds": [
            "MTA NYCT_B13",
            "MTA NYCT_B14",
            "MTA NYCT_B20"
        ],
        "wheelchairBoarding": "UNKNOWN"
    },
    {
        "code": "307896",
        "direction": "W",
        "id": "MTA_307896",
        "lat": 40.666252,
        "locationType": 0,
        "lon": -73.862215,
        "name": "STANLEY AV/ELDERT LN",
        "routeIds": [
            "MTA NYCT_B13",
            "MTA NYCT_B14",
            "MTA NYCT_B20"
        ],
        "wheelchairBoarding": "UNKNOWN"
    },
    {
        "code": "307971",
        "direction": "E",
        "id": "MTA_307971",
        "lat": 40.666053,
        "locationType": 0,
        "lon": -73.863201,
        "name": "STANLEY AV/SHERIDAN AV",
        "routeIds": [
            "MTA NYCT_B13",
            "MTA NYCT_B14",
            "MTA NYCT_B20"
        ],
        "wheelchairBoarding": "UNKNOWN"
    },
    {
        "code": "307984",
        "direction": "E",
        "id": "MTA_307984",
        "lat": 40.668552,
        "locationType": 0,
        "lon": -73.931509,
        "name": "EASTERN PKWY/UTICA AV",
        "routeIds": [
            "MTA NYCT_B14",
            "MTA NYCT_B99"
        ],
        "wheelchairBoarding": "UNKNOWN"
    },
    {
        "code": "308315",
        "direction": "W",
        "id": "MTA_308315",
        "lat": 40.668064,
        "locationType": 0,
        "lon": -73.86097,
        "name": "LORING AV/DREW ST",
        "routeIds": [
            "MTA NYCT_B14",
            "MTA NYCT_B15"
        ],
        "wheelchairBoarding": "UNKNOWN"
    },
    {
        "code": "901067",
        "direction": "S",
        "id": "MTA_901067",
        "lat": 40.66491,
        "locationType": 0,
        "lon": -73.86333,
        "name": "POSTAL FACILITY RD/BROOKLYN MAIL FACILITY",
        "routeIds": [
            "MTA NYCT_B14",
            "MTA NYCT_B20"
        ],
        "wheelchairBoarding": "UNKNOWN"
    },
    {
        "code": "901274",
        "direction": "W",
        "id": "MTA_901274",
        "lat": 40.669105,
        "locationType": 0,
        "lon": -73.931355,
        "name": "EASTERN PKWY/UTICA AV",
        "routeIds": [
            "MTA NYCT_B14"
        ],
        "wheelchairBoarding": "UNKNOWN"
    }
]