[
    {
        "code": "300064",
        "direction": "W",
        "id": "MTA_300064",
        "lat": 40.635935,
        "locationType": 0,
        "lon": -74.026507,
        "name": "BAY RIDGE AV/3 AV",
        "routeIds": [
            "MTA NYCT_B9",
            "MTA NYCT_B64",
            "MTA NYCT_X27",
            "MTA NYCT_X37"
        ],
        "wheelchairBoarding": "UNKNOWN"
    },
    {
        "code": "300066",
        "direction": "W",
        "id": "MTA_300066",
        "lat": 40.637514,
        "locationType": 0,
        "lon": -74.031606,
        "name": "BAY RIDGE AV/COLONIAL RD",
        "routeIds": [
            "MTA NYCT_B9",
            "MTA NYCT_B64",
            "MTA NYCT_X27",
            "MTA NYCT_X37"
        ],
        "wheelchairBoarding": "UNKNOWN"
    },
    {
        "code": "300071",
        "direction": "E",
        "id": "MTA_300071",
        "lat": 40.63857,
        "locationType": 0,
        "lon": -74.035368,
        "name": "BAY RIDGE AV/SHORE RD",
        "routeIds": [
            "MTA NYCT_B9",
            "MTA NYCT_B64",
            "MTA NYCT_X27",
            "MTA NYCT_X37"
        ],
        "wheelchairBoarding": "UNKNOWN"
    },
    {
        "code": "300073",
        "direction": "E",
        "id": "MTA_300073",
        "lat": 40.637191,
        "locationType": 0,
        "lon": -74.030921,
        "name": "BAY RIDGE AV/COLONIAL RD",
        "routeIds": [
            "MTA NYCT_B9",
            "MTA NYCT_B64",
            "MTA NYCT_X27",
            "MTA NYCT_X37"
        ],
        "wheelchairBoarding": "UNKNOWN"
    },
    {
        "code": "300924",
        "direction": "NE",
        "id": "MTA_300924",
        "lat": 40.639222,
        "locationType": 0,
        "lon": -74.02359,
        "name": "3 AV/65 ST",
        "routeIds": [
            "MTA NYCT_B37",
            "MTA NYCT_X27",
            "MTA NYCT_X37"
        ],
        "wheelchairBoarding": "UNKNOWN"
    },
    {
        "code": "301604",
        "direction": "NW",
        "id": "MTA_301604",
        "lat": 40.614081,
        "locationType": 0,
        "lon": -74.037102,
        "name": "SHORE RD/99 ST",
        "routeIds": [
            "MTA NYCT_B16",
            "MTA NYCT_X27",
            "MTA NYCT_X37"
        ],
        "wheelchairBoarding": "UNKNOWN"
    },
    {
        "code": "301605",
        "direction": "NW",
        "id": "MTA_301605",
        "lat": 40.615508,
        "locationType": 0,
        "lon": -74.037701,
        "name": "SHORE RD/97 ST",
        "routeIds": [
            "MTA NYCT_B16",
            "MTA NYCT_X27",
            "MTA NYCT_X37"
        ],
        "wheelchairBoarding": "UNKNOWN"
    },
    {
        "code": "301606",
        "direction": "NW",
        "id": "MTA_301606",
        "lat": 40.617525,
        "locationType": 0,
        "lon": -74.038876,
        "name": "SHORE RD/RIDGE BLVD",
        "routeIds": [
            "MTA NYCT_B16",
            "MTA NYCT_X27",
            "MTA NYCT_X37"
        ],
        "wheelchairBoarding": "UNKNOWN"
    },
    {
        "code": "301607",
        "direction": "NW",
        "id": "MTA_301607",
        "lat": 40.619415,
        "locationType": 0,
        "lon": -74.040023,
        "name": "SHORE RD/OLIVER ST",
        "routeIds": [
            "MTA NYCT_B16",
            "MTA NYCT_X27",
            "MTA NYCT_X37"
        ],
        "wheelchairBoarding": "UNKNOWN"
    },
    {
        "code": "301608",
        "direction": "N",
        "id": "MTA_301608",
        "lat": 40.622004,
        "locationType": 0,
        "lon": -74.040075,
        "name": "SHORE RD/91 ST",
        "routeIds": [
            "MTA NYCT_B16",
            "MTA NYCT_X27",
            "MTA NYCT_X37"
        ],
        "wheelchairBoarding": "UNKNOWN"
    },
    {
        "code": "301714",
        "direction": "S",
        "id": "MTA_301714",
        "lat": 40.624295,
        "locationType": 0,
        "lon": -74.040876,
        "name": "SHORE RD/88 ST",
        "routeIds": [
            "MTA NYCT_B16",
            "MTA NYCT_X27",
            "MTA NYCT_X37"
        ],
        "wheelchairBoarding": "UNKNOWN"
    },
    {
        "code": "301716",
        "direction": "SW",
        "id": "MTA_301716",
        "lat": 40.621235,
        "locationType": 0,
        "lon": -74.040435,
        "name": "SHORE RD/91 ST",
        "routeIds": [
            "MTA NYCT_B16",
            "MTA NYCT_X27",
            "MTA NYCT_X37"
        ],
        "wheelchairBoarding": "UNKNOWN"
    },
    {
        "code": "301717",
        "direction": "SE",
        "id": "MTA_301717",
        "lat": 40.618872,
        "locationType": 0,
        "lon": -74.039907,
        "name": "SHORE RD/OLIVER ST",
        "routeIds": [
            "MTA NYCT_B16",
            "MTA NYCT_X27",
            "MTA NYCT_X37"
        ],
        "wheelchairBoarding": "UNKNOWN"
    },
    {
        "code": "301718",
        "direction": "SE",
        "id": "MTA_301718",
        "lat": 40.616924,
        "locationType": 0,
        "lon": -74.038721,
        "name": "SHORE RD/RIDGE BLVD",
        "routeIds": [
            "MTA NYCT_B16",
            "MTA NYCT_X27",
            "MTA NYCT_X37"
        ],
        "wheelchairBoarding": "UNKNOWN"
    },
    {
        "code": "301719",
        "direction": "S",
        "id": "MTA_301719",
        "lat": 40.614978,
        "locationType": 0,
        "lon": -74.037686,
        "name": "SHORE RD/97 ST",
        "routeIds": [
            "MTA NYCT_B16",
            "MTA NYCT_X27",
            "MTA NYCT_X37"
        ],
        "wheelchairBoarding": "UNKNOWN"
    },
    {
        "code": "301720",
        "direction": "SE",
        "id": "MTA_301720",
        "lat": 40.61357,
        "locationType": 0,
        "lon": -74.037041,
        "name": "SHORE RD/99 ST",
        "routeIds": [
            "MTA NYCT_B16",
            "MTA NYCT_X27",
            "MTA NYCT_X37"
        ],
        "wheelchairBoarding": "UNKNOWN"
    },
    {
        "code": "301721",
        "direction": "NE",
        "id": "MTA_301721",
        "lat": 40.612681,
        "locationType": 0,
        "lon": -74.035895,
        "name": "3 AV/SHORE RD",
        "routeIds": [
            "MTA NYCT_B16",
            "MTA NYCT_X27",
            "MTA NYCT_X37"
        ],
        "wheelchairBoarding": "UNKNOWN"
    },
    {
        "code": "301722",
        "direction": "NE",
        "id": "MTA_301722",
        "lat": 40.614823,
        "locationType": 0,
        "lon": -74.034585,
        "name": "3 AV/MARINE AV",
        "routeIds": [
            "MTA NYCT_B16",
            "MTA NYCT_B37",
            "MTA NYCT_X27",
            "MTA NYCT_X37"
        ],
        "wheelchairBoarding": "UNKNOWN"
    },
    {
        "code": "301723",
        "direction": "SE",
        "id": "MTA_301723",
        "lat": 40.614019,
        "locationType": 0,
        "lon": -74.032866,
        "name": "MARINE AV/4 AV",
        "routeIds": [
            "MTA NYCT_B16",
            "MTA NYCT_X27",
            "MTA NYCT_X37"
        ],
        "wheelchairBoarding": "UNKNOWN"
    },
    {
        "code": "307078",
        "direction": "N",
        "id": "MTA_307078",
        "lat": 40.637425,
        "locationType": 0,
        "lon": -74.025268,
        "name": "3 AV/SENATOR ST",
        "routeIds": [
            "MTA NYCT_B37",
            "MTA NYCT_X27",
            "MTA NYCT_X37"
        ],
        "wheelchairBoarding": "UNKNOWN"
    },
    {
        "code": "307780",
        "direction": "NE",
        "id": "MTA_307780",
        "lat": 40.627897,
        "locationType": 0,
        "lon": -74.039898,
        "name": "SHORE RD/83 ST",
        "routeIds": [
            "MTA NYCT_B16",
            "MTA NYCT_B63",
            "MTA NYCT_X27",
            "MTA NYCT_X37"
        ],
        "wheelchairBoarding": "UNKNOWN"
    },
    {
        "code": "307958",
        "direction": "N",
        "id": "MTA_307958",
        "lat": 40.624496,
        "locationType": 0,
        "lon": -74.040638,
        "name": "SHORE RD/88 ST",
        "routeIds": [
            "MTA NYCT_X27",
            "MTA NYCT_X37"
        ],
        "wheelchairBoarding": "UNKNOWN"
    },
    {
        "code": "307959",
        "direction": "NE",
        "id": "MTA_307959",
        "lat": 40.631504,
        "locationType": 0,
        "lon": -74.038495,
        "name": "SHORE RD/79 ST",
        "routeIds": [
            "MTA NYCT_X27",
            "MTA NYCT_X37"
        ],
        "wheelchairBoarding": "UNKNOWN"
    },
    {
        "code": "307960",
        "direction": "N",
        "id": "MTA_307960",
        "lat": 40.633942,
        "locationType": 0,
        "lon": -74.036695,
        "name": "SHORE RD/BAY RIDGE PKWY",
        "routeIds": [
            "MTA NYCT_X27",
            "MTA NYCT_X37"
        ],
        "wheelchairBoarding": "UNKNOWN"
    },
    {
        "code": "307961",
        "direction": "NE",
        "id": "MTA_307961",
        "lat": 40.636202,
        "locationType": 0,
        "lon": -74.036908,
        "name": "SHORE RD/72 ST",
        "routeIds": [
            "MTA NYCT_X27",
            "MTA NYCT_X37"
        ],
        "wheelchairBoarding": "UNKNOWN"
    },
    {
        "code": "308087",
        "direction": "SE",
        "id": "MTA_308087",
        "lat": 40.638125,
        "locationType": 0,
        "lon": -74.024872,
        "name": "WAKEMAN PL/3 AV",
        "routeIds": [
            "MTA NYCT_X27",
            "MTA NYCT_X37"
        ],
        "wheelchairBoarding": "UNKNOWN"
    },
    {
        "code": "308088",
        "direction": "S",
        "id": "MTA_308088",
        "lat": 40.63843,
        "locationType": 0,
        "lon": -74.036175,
        "name": "SHORE RD/BAY RIDGE AV",
        "routeIds": [
            "MTA NYCT_X27",
            "MTA NYCT_X37"
        ],
        "wheelchairBoarding": "UNKNOWN"
    },
    {
        "code": "308089",
        "direction": "SW",
        "id": "MTA_308089",
        "lat": 40.635944,
        "locationType": 0,
        "lon": -74.03739,
        "name": "SHORE RD/72 ST",
        "routeIds": [
            "MTA NYCT_X27",
            "MTA NYCT_X37"
        ],
        "wheelchairBoarding": "UNKNOWN"
    },
    {
        "code": "308090",
        "direction": "SW",
        "id": "MTA_308090",
        "lat": 40.633545,
        "locationType": 0,
        "lon": -74.037091,
        "name": "SHORE RD/BAY RIDGE PKWY",
        "routeIds": [
            "MTA NYCT_X27",
            "MTA NYCT_X37"
        ],
        "wheelchairBoarding": "UNKNOWN"
    },
    {
        "code": "308091",
        "direction": "SW",
        "id": "MTA_308091",
        "lat": 40.631403,
        "locationType": 0,
        "lon": -74.038844,
        "name": "SHORE RD/79 ST",
        "routeIds": [
            "MTA NYCT_X27",
            "MTA NYCT_X37"
        ],
        "wheelchairBoarding": "UNKNOWN"
    },
    {
        "code": "308092",
        "direction": "SW",
        "id": "MTA_308092",
        "lat": 40.627754,
        "locationType": 0,
        "lon": -74.04019,
        "name": "SHORE RD/83 ST",
        "routeIds": [
            "MTA NYCT_X27",
            "MTA NYCT_X37"
        ],
        "wheelchairBoarding": "UNKNOWN"
    },
    {
        "code": "308107",
        "direction": "SE",
        "id": "MTA_308107",
        "lat": 40.639351,
        "locationType": 0,
        "lon": -74.026868,
        "name": "WAKEMAN PL/RIDGE BLVD",
        "routeIds": [
            "MTA NYCT_X27",
            "MTA NYCT_X37"
        ],
        "wheelchairBoarding": "UNKNOWN"
    },
    {
        "code": "308640",
        "direction": "NW",
        "id": "MTA_308640",
        "lat": 40.611842,
        "locationType": 0,
        "lon": -74.035202,
        "name": "SHORE RD/4 AV",
        "routeIds": [
            "MTA NYCT_X27",
            "MTA NYCT_X37"
        ],
        "wheelchairBoarding": "UNKNOWN"
    },
    {
        "code": "400134",
        "direction": "SW",
        "id": "MTA_400134",
        "lat": 40.7545,
        "locationType": 0,
        "lon": -73.980223,
        "name": "5 AV/W 44 ST",
        "routeIds": [
            "MTA NYCT_X27",
            "MTA NYCT_X28",
            "MTA NYCT_X37",
            "MTA NYCT_X38",
            "MTA NYCT_X68"
        ],
        "wheelchairBoarding": "UNKNOWN"
    },
    {
        "code": "400917",
        "direction": "N",
        "id": "MTA_400917",
        "lat": 40.72573,
        "locationType": 0,
        "lon": -74.00387,
        "name": "6 AV/SPRING ST",
        "routeIds": [
            "MTA NYCT_M21",
            "MTA NYCT_M55",
            "MTA NYCT_X27",
            "MTA NYCT_X28"
        ],
        "wheelchairBoarding": "UNKNOWN"
    },
    {
        "code": "402130",
        "direction": "SE",
        "id": "MTA_402130",
        "lat": 40.741142,
        "locationType": 0,
        "lon": -73.98879,
        "name": "E 23 ST/BROADWAY",
        "routeIds": [
            "MTA NYCT_M23+",
            "MTA NYCT_SIM4C",
            "MTA NYCT_SIM10",
            "MTA NYCT_SIM31",
            "MTA NYCT_SIM33C",
            "MTA NYCT_X27",
            "MTA NYCT_X28",
            "MTA NYCT_X37",
            "MTA NYCT_X38",
            "MTA NYCT_X63",
            "MTA NYCT_X64",
            "MTA NYCT_X68"
        ],
        "wheelchairBoarding": "UNKNOWN"
    },
    {
        "code": "402227",
        "direction": "NW",
        "id": "MTA_402227",
        "lat": 40.762524,
        "locationType": 0,
        "lon": -73.972826,
        "name": "E 57 ST/MADISON AV",
        "routeIds": [
            "MTA NYCT_SIM8",
            "MTA NYCT_SIM8X",
            "MTA NYCT_SIM25",
            "MTA NYCT_SIM31",
            "MTA NYCT_X27",
            "MTA NYCT_X28",
            "MTA NYCT_X37",
            "MTA NYCT_X38"
        ],
        "wheelchairBoarding": "UNKNOWN"
    },
    {
        "code": "404179",
        "direction": "SW",
        "id": "MTA_404179",
        "lat": 40.759519,
        "locationType": 0,
        "lon": -73.976567,
        "name": "5 AV/W 52 ST",
        "routeIds": [
            "MTA NYCT_X27",
            "MTA NYCT_X28",
            "MTA NYCT_X37",
            "MTA NYCT_X38"
        ],
        "wheelchairBoarding": "UNKNOWN"
    },
    {
        "code": "404181",
        "direction": "SW",
        "id": "MTA_404181",
        "lat": 40.752469,
        "locationType": 0,
        "lon": -73.981704,
        "name": "5 AV/W 41 ST",
        "routeIds": [
            "MTA NYCT_X27",
            "MTA NYCT_X28",
            "MTA NYCT_X37",
            "MTA NYCT_X38"
        ],
        "wheelchairBoarding": "UNKNOWN"
    },
    {
        "code": "404183",
        "direction": "SW",
        "id": "MTA_404183",
        "lat": 40.745638,
        "locationType": 0,
        "lon": -73.986682,
        "name": "5 AV/W 30 ST",
        "routeIds": [
            "MTA NYCT_X27",
            "MTA NYCT_X28",
            "MTA NYCT_X37",
            "MTA NYCT_X38"
        ],
        "wheelchairBoarding": "UNKNOWN"
    },
    {
        "code": "404184",
        "direction": "SW",
        "id": "MTA_404184",
        "lat": 40.729526,
        "locationType": 0,
        "lon": -73.993348,
        "name": "BROADWAY/WAVERLY PL",
        "routeIds": [
            "MTA NYCT_SIM1C",
            "MTA NYCT_SIM3C",
            "MTA NYCT_SIM4C",
            "MTA NYCT_SIM33C",
            "MTA NYCT_X27",
            "MTA NYCT_X28"
        ],
        "wheelchairBoarding": "UNKNOWN"
    },
    {
        "code": "404185",
        "direction": "SW",
        "id": "MTA_404185",
        "lat": 40.715464,
        "locationType": 0,
        "lon": -74.005263,
        "name": "BROADWAY/THOMAS ST",
        "routeIds": [
            "MTA NYCT_X27",
            "MTA NYCT_X28"
        ],
        "wheelchairBoarding": "UNKNOWN"
    },
    {
        "code": "404186",
        "direction": "SW",
        "id": "MTA_404186",
        "lat": 40.71283,
        "locationType": 0,
        "lon": -74.007535,
        "name": "BROADWAY/MURRAY ST",
        "routeIds": [
            "MTA NYCT_X27",
            "MTA NYCT_X28"
        ],
        "wheelchairBoarding": "UNKNOWN"
    },
    {
        "code": "404188",
        "direction": "SW",
        "id": "MTA_404188",
        "lat": 40.708888,
        "locationType": 0,
        "lon": -74.01086,
        "name": "BROADWAY/CEDAR ST",
        "routeIds": [
            "MTA NYCT_X27",
            "MTA NYCT_X28"
        ],
        "wheelchairBoarding": "UNKNOWN"
    },
    {
        "code": "404197",
        "direction": "S",
        "id": "MTA_404197",
        "lat": 40.733849,
        "locationType": 0,
        "lon": -73.991058,
        "name": "BROADWAY/E 13 ST",
        "routeIds": [
            "MTA NYCT_SIM7",
            "MTA NYCT_SIM9",
            "MTA NYCT_SIM33",
            "MTA NYCT_X27",
            "MTA NYCT_X28"
        ],
        "wheelchairBoarding": "UNKNOWN"
    },
    {
        "code": "404225",
        "direction": "SW",
        "id": "MTA_404225",
        "lat": 40.711896,
        "locationType": 0,
        "lon": -74.008313,
        "name": "BROADWAY/BARCLAY ST",
        "routeIds": [
            "MTA NYCT_M55",
            "MTA NYCT_X27",
            "MTA NYCT_X28"
        ],
        "wheelchairBoarding": "UNKNOWN"
    },
    {
        "code": "404231",
        "direction": "SW",
        "id": "MTA_404231",
        "lat": 40.707027,
        "locationType": 0,
        "lon": -74.012382,
        "name": "BROADWAY/EXCHANGE ALLEY",
        "routeIds": [
            "MTA NYCT_X27",
            "MTA NYCT_X28"
        ],
        "wheelchairBoarding": "UNKNOWN"
    },
    {
        "code": "404295",
        "direction": "NE",
        "id": "MTA_404295",
        "lat": 40.742006,
        "locationType": 0,
        "lon": -73.987081,
        "name": "MADISON AV/E 25 ST",
        "routeIds": [
            "MTA NYCT_X27",
            "MTA NYCT_X63",
            "MTA NYCT_X64",
            "MTA NYCT_X68"
        ],
        "wheelchairBoarding": "UNKNOWN"
    },
    {
        "code": "404299",
        "direction": "NE",
        "id": "MTA_404299",
        "lat": 40.756882,
        "locationType": 0,
        "lon": -73.976199,
        "name": "MADISON AV/E 48 ST",
        "routeIds": [
            "MTABC_BM1",
            "MTABC_BM2",
            "MTABC_BM3",
            "MTABC_BM4",
            "MTABC_BM5",
            "MTA NYCT_SIM23",
            "MTA NYCT_SIM24",
            "MTA NYCT_SIM25",
            "MTA NYCT_SIM26",
            "MTA NYCT_SIM30",
            "MTA NYCT_X27",
            "MTA NYCT_X28",
            "MTA NYCT_X37",
            "MTA NYCT_X38",
            "MTA NYCT_X63",
            "MTA NYCT_X64",
            "MTA NYCT_X68"
        ],
        "wheelchairBoarding": "UNKNOWN"
    },
    {
        "code": "404879",
        "direction": "NE",
        "id": "MTA_404879",
        "lat": 40.752666,
        "locationType": 0,
        "lon": -73.979335,
        "name": "MADISON AV/E 42 ST",
        "routeIds": [
            "MTA NYCT_X27",
            "MTA NYCT_X28",
            "MTA NYCT_X37",
            "MTA NYCT_X38"
        ],
        "wheelchairBoarding": "UNKNOWN"
    },
    {
        "code": "404890",
        "direction": "NE",
        "id": "MTA_404890",
        "lat": 40.713424,
        "locationType": 0,
        "lon": -74.009009,
        "name": "CHURCH ST/PARK PL",
        "routeIds": [
            "MTA NYCT_X27",
            "MTA NYCT_X28"
        ],
        "wheelchairBoarding": "UNKNOWN"
    },
    {
        "code": "404891",
        "direction": "NE",
        "id": "MTA_404891",
        "lat": 40.715045,
        "locationType": 0,
        "lon": -74.007712,
        "name": "CHURCH ST/CHAMBERS ST",
        "routeIds": [
            "MTA NYCT_SIM1",
            "MTA NYCT_SIM1C",
            "MTA NYCT_SIM2",
            "MTA NYCT_SIM4",
            "MTA NYCT_SIM4C",
            "MTA NYCT_SIM4X",
            "MTA NYCT_SIM32",
            "MTA NYCT_SIM34",
            "MTA NYCT_X27",
            "MTA NYCT_X28"
        ],
        "wheelchairBoarding": "UNKNOWN"
    },
    {
        "code": "404896",
        "direction": "NE",
        "id": "MTA_404896",
        "lat": 40.733135,
        "locationType": 0,
        "lon": -73.999787,
        "name": "6 AV/ WAVERLY PL",
        "routeIds": [
            "MTA NYCT_X27",
            "MTA NYCT_X28"
        ],
        "wheelchairBoarding": "UNKNOWN"
    },
    {
        "code": "404901",
        "direction": "NE",
        "id": "MTA_404901",
        "lat": 40.744857,
        "locationType": 0,
        "lon": -73.984955,
        "name": "MADISON AV/E 29 ST",
        "routeIds": [
            "MTA NYCT_X27",
            "MTA NYCT_X28",
            "MTA NYCT_X37",
            "MTA NYCT_X38"
        ],
        "wheelchairBoarding": "UNKNOWN"
    },
    {
        "code": "404902",
        "direction": "NE",
        "id": "MTA_404902",
        "lat": 40.747643,
        "locationType": 0,
        "lon": -73.982955,
        "name": "MADISON AV/E 34 ST",
        "routeIds": [
            "MTA NYCT_X27",
            "MTA NYCT_X28",
            "MTA NYCT_X37",
            "MTA NYCT_X38"
        ],
        "wheelchairBoarding": "UNKNOWN"
    },
    {
        "code": "404903",
        "direction": "NE",
        "id": "MTA_404903",
        "lat": 40.749803,
        "locationType": 0,
        "lon": -73.981377,
        "name": "MADISON AV/E 37 ST",
        "routeIds": [
            "MTA NYCT_SIM23",
            "MTA NYCT_SIM24",
            "MTA NYCT_X27",
            "MTA NYCT_X28",
            "MTA NYCT_X37",
            "MTA NYCT_X38"
        ],
        "wheelchairBoarding": "UNKNOWN"
    },
    {
        "code": "404906",
        "direction": "NE",
        "id": "MTA_404906",
        "lat": 40.760261,
        "locationType": 0,
        "lon": -73.973779,
        "name": "MADISON AV/E 54 ST",
        "routeIds": [
            "MTA NYCT_X27",
            "MTA NYCT_X28",
            "MTA NYCT_X37",
            "MTA NYCT_X38"
        ],
        "wheelchairBoarding": "UNKNOWN"
    },
    {
        "code": "404907",
        "direction": "NW",
        "id": "MTA_404907",
        "lat": 40.762461,
        "locationType": 0,
        "lon": -73.972734,
        "name": "E 57 ST/MADISON AV",
        "routeIds": [
            "MTA NYCT_X27",
            "MTA NYCT_X28",
            "MTA NYCT_X37",
            "MTA NYCT_X38"
        ],
        "wheelchairBoarding": "UNKNOWN"
    },
    {
        "code": "405049",
        "direction": "SW",
        "id": "MTA_405049",
        "lat": 40.748922,
        "locationType": 0,
        "lon": -73.984296,
        "name": "5 AV/W 35 ST",
        "routeIds": [
            "MTABC_BXM9",
            "MTABC_BXM10",
            "MTABC_BXM11",
            "MTA NYCT_X27",
            "MTA NYCT_X28",
            "MTA NYCT_X37",
            "MTA NYCT_X38"
        ],
        "wheelchairBoarding": "UNKNOWN"
    },
    {
        "code": "405218",
        "direction": "SW",
        "id": "MTA_405218",
        "lat": 40.718583,
        "locationType": 0,
        "lon": -74.002673,
        "name": "BROADWAY/WALKER ST",
        "routeIds": [
            "MTA NYCT_X27",
            "MTA NYCT_X28"
        ],
        "wheelchairBoarding": "UNKNOWN"
    },
    {
        "code": "405277",
        "direction": "SW",
        "id": "MTA_405277",
        "lat": 40.721704,
        "locationType": 0,
        "lon": -74.000018,
        "name": "BROADWAY/BROOME ST",
        "routeIds": [
            "MTA NYCT_SIM1",
            "MTA NYCT_SIM1C",
            "MTA NYCT_SIM3C",
            "MTA NYCT_SIM4C",
            "MTA NYCT_SIM33C",
            "MTA NYCT_SIM34",
            "MTA NYCT_X27",
            "MTA NYCT_X28"
        ],
        "wheelchairBoarding": "UNKNOWN"
    },
    {
        "code": "405557",
        "direction": "NE",
        "id": "MTA_405557",
        "lat": 40.737241,
        "locationType": 0,
        "lon": -73.99687,
        "name": "6 AV/ W 13 ST",
        "routeIds": [
            "MTA NYCT_X27"
        ],
        "wheelchairBoarding": "UNKNOWN"
    },
    {
        "code": "450075",
        "direction": "NE",
        "id": "MTA_450075",
        "lat": 40.716228,
        "locationType": 0,
        "lon": -74.006778,
        "name": "CHURCH ST/DUANE ST",
        "routeIds": [
            "MTA NYCT_X27"
        ],
        "wheelchairBoarding": "UNKNOWN"
    },
    {
        "code": "450162",
        "direction": "N",
        "id": "MTA_450162",
        "lat": 40.721074,
        "locationType": 0,
        "lon": -74.005158,
        "name": "6 AV /LISPENARD ST",
        "routeIds": [
            "MTA NYCT_X27",
            "MTA NYCT_X28"
        ],
        "wheelchairBoarding": "UNKNOWN"
    },
    {
        "code": "450402",
        "direction": "NE",
        "id": "MTA_450402",
        "lat": 40.711727,
        "locationType": 0,
        "lon": -74.010261,
        "name": "CHURCH ST/FULTON ST",
        "routeIds": [
            "MTA NYCT_SIM1",
            "MTA NYCT_SIM1C",
            "MTA NYCT_SIM2",
            "MTA NYCT_SIM3C",
            "MTA NYCT_SIM4",
            "MTA NYCT_SIM4C",
            "MTA NYCT_SIM4X",
            "MTA NYCT_SIM15",
            "MTA NYCT_SIM32",
            "MTA NYCT_SIM33C",
            "MTA NYCT_SIM34",
            "MTA NYCT_X27",
            "MTA NYCT_X28"
        ],
        "wheelchairBoarding": "UNKNOWN"
    },
    {
        "code": "803234",
        "direction": "W",
        "id": "MTA_803234",
        "lat": 40.704921,
        "locationType": 0,
        "lon": -74.015441,
        "name": "BATTERY PL/GREENWICH ST",
        "routeIds": [
            "MTA NYCT_X27",
            "MTA NYCT_X28"
        ],
        "wheelchairBoarding": "UNKNOWN"
    },
    {
        "code": "901024",
        "direction": "NW",
        "id": "MTA_901024",
        "lat": 40.611763,
        "locationType": 0,
        "lon": -74.035126,
        "name": "4TH AV/SHORE RD",
        "routeIds": [
            "MTA NYCT_X27",
            "MTA NYCT_X37"
        ],
        "wheelchairBoarding": "UNKNOWN"
    },
    {
        "code": "903095",
        "direction": "NE",
        "id": "MTA_903095",
        "lat": 40.707875,
        "locationType": 0,
        "lon": -74.012754,
        "name": "TRINITY PL/RECTOR ST",
        "routeIds": [
            "MTA NYCT_SIM15",
            "MTA NYCT_X27",
            "MTA NYCT_X28"
        ],
        "wheelchairBoarding": "UNKNOWN"
    },
    {
        "code": "903205",
        "direction": "E",
        "id": "MTA_903205",
        "lat": 40.704707,
        "locationType": 0,
        "lon": -74.015088,
        "name": "BATTERY PL/GREENWICH ST",
        "routeIds": [
            "MTA NYCT_SIM35",
            "MTA NYCT_X27",
            "MTA NYCT_X28"
        ],
        "wheelchairBoarding": "UNKNOWN"
    },
    {
        "code": "903213",
        "direction": "SE",
        "id": "MTA_903213",
        "lat": 40.741528,
        "locationType": 0,
        "lon": -73.98978,
        "name": "W 23 ST/5 AV",
        "routeIds": [
            "MTA NYCT_X27",
            "MTA NYCT_X28"
        ],
        "wheelchairBoarding": "UNKNOWN"
    }
]