[
    {
        "code": "301028",
        "direction": "N",
        "id": "MTA_301028",
        "lat": 40.669213,
        "locationType": 0,
        "lon": -73.862711,
        "name": "ELDERT LN/LINDEN BLVD",
        "routeIds": [
            "MTA NYCT_B13",
            "MTA NYCT_B15",
            "MTA NYCT_B20"
        ],
        "wheelchairBoarding": "UNKNOWN"
    },
    {
        "code": "301029",
        "direction": "W",
        "id": "MTA_301029",
        "lat": 40.669579,
        "locationType": 0,
        "lon": -73.8634,
        "name": "LINDEN BLVD/ELDERT LN",
        "routeIds": [
            "MTA NYCT_B13",
            "MTA NYCT_B14",
            "MTA NYCT_B15",
            "MTA NYCT_B20",
            "MTABC_BM5"
        ],
        "wheelchairBoarding": "UNKNOWN"
    },
    {
        "code": "301030",
        "direction": "W",
        "id": "MTA_301030",
        "lat": 40.669378,
        "locationType": 0,
        "lon": -73.864735,
        "name": "LINDEN BLVD/SHERIDAN AV",
        "routeIds": [
            "MTA NYCT_B13",
            "MTA NYCT_B14",
            "MTA NYCT_B15",
            "MTA NYCT_B20"
        ],
        "wheelchairBoarding": "UNKNOWN"
    },
    {
        "code": "301031",
        "direction": "W",
        "id": "MTA_301031",
        "lat": 40.669103,
        "locationType": 0,
        "lon": -73.866727,
        "name": "LINDEN BLVD/AUTUMN AV",
        "routeIds": [
            "MTA NYCT_B13",
            "MTA NYCT_B15",
            "MTA NYCT_B20"
        ],
        "wheelchairBoarding": "UNKNOWN"
    },
    {
        "code": "301032",
        "direction": "W",
        "id": "MTA_301032",
        "lat": 40.668838,
        "locationType": 0,
        "lon": -73.868549,
        "name": "LINDEN BLVD/CRESCENT ST",
        "routeIds": [
            "MTA NYCT_B13",
            "MTA NYCT_B15",
            "MTA NYCT_B20"
        ],
        "wheelchairBoarding": "UNKNOWN"
    },
    {
        "code": "301155",
        "direction": "NE",
        "id": "MTA_301155",
        "lat": 40.667861,
        "locationType": 0,
        "lon": -73.869791,
        "name": "LINDEN BLVD/EUCLID AV",
        "routeIds": [
            "MTA NYCT_B13",
            "MTA NYCT_B15",
            "MTA NYCT_B20"
        ],
        "wheelchairBoarding": "UNKNOWN"
    },
    {
        "code": "301156",
        "direction": "E",
        "id": "MTA_301156",
        "lat": 40.66853,
        "locationType": 0,
        "lon": -73.868039,
        "name": "LINDEN BLVD/CRESCENT ST",
        "routeIds": [
            "MTA NYCT_B13",
            "MTA NYCT_B15",
            "MTA NYCT_B20"
        ],
        "wheelchairBoarding": "UNKNOWN"
    },
    {
        "code": "301418",
        "direction": "NW",
        "id": "MTA_301418",
        "lat": 40.659222,
        "locationType": 0,
        "lon": -73.866128,
        "name": "FOUNTAIN AV/VANDALIA AV",
        "routeIds": [
            "MTA NYCT_B13",
            "MTA NYCT_B84"
        ],
        "wheelchairBoarding": "UNKNOWN"
    },
    {
        "code": "301419",
        "direction": "NW",
        "id": "MTA_301419",
        "lat": 40.660961,
        "locationType": 0,
        "lon": -73.865857,
        "name": "CRESCENT ST/FLATLANDS AV",
        "routeIds": [
            "MTA NYCT_B13"
        ],
        "wheelchairBoarding": "UNKNOWN"
    },
    {
        "code": "301420",
        "direction": "N",
        "id": "MTA_301420",
        "lat": 40.66257,
        "locationType": 0,
        "lon": -73.866734,
        "name": "CRESCENT ST/COZINE AV",
        "routeIds": [
            "MTA NYCT_B13"
        ],
        "wheelchairBoarding": "UNKNOWN"
    },
    {
        "code": "301421",
        "direction": "N",
        "id": "MTA_301421",
        "lat": 40.664223,
        "locationType": 0,
        "lon": -73.867149,
        "name": "CRESCENT ST/WORTMAN AV",
        "routeIds": [
            "MTA NYCT_B13"
        ],
        "wheelchairBoarding": "UNKNOWN"
    },
    {
        "code": "301429",
        "direction": "N",
        "id": "MTA_301429",
        "lat": 40.675584,
        "locationType": 0,
        "lon": -73.869956,
        "name": "CRESCENT ST/PITKIN AV",
        "routeIds": [
            "MTA NYCT_B13"
        ],
        "wheelchairBoarding": "UNKNOWN"
    },
    {
        "code": "301430",
        "direction": "N",
        "id": "MTA_301430",
        "lat": 40.676785,
        "locationType": 0,
        "lon": -73.870238,
        "name": "CRESCENT ST/GLENMORE AV",
        "routeIds": [
            "MTA NYCT_B13"
        ],
        "wheelchairBoarding": "UNKNOWN"
    },
    {
        "code": "301431",
        "direction": "N",
        "id": "MTA_301431",
        "lat": 40.678074,
        "locationType": 0,
        "lon": -73.870557,
        "name": "CRESCENT ST/LIBERTY AV",
        "routeIds": [
            "MTA NYCT_B13"
        ],
        "wheelchairBoarding": "UNKNOWN"
    },
    {
        "code": "301435",
        "direction": "N",
        "id": "MTA_301435",
        "lat": 40.683955,
        "locationType": 0,
        "lon": -73.872228,
        "name": "CRESCENT ST/FULTON ST",
        "routeIds": [
            "MTA NYCT_B13"
        ],
        "wheelchairBoarding": "UNKNOWN"
    },
    {
        "code": "301436",
        "direction": "N",
        "id": "MTA_301436",
        "lat": 40.685721,
        "locationType": 0,
        "lon": -73.872767,
        "name": "CRESCENT ST/RIDGEWOOD AV",
        "routeIds": [
            "MTA NYCT_B13"
        ],
        "wheelchairBoarding": "UNKNOWN"
    },
    {
        "code": "301437",
        "direction": "N",
        "id": "MTA_301437",
        "lat": 40.687212,
        "locationType": 0,
        "lon": -73.873251,
        "name": "CRESCENT ST/ETNA ST",
        "routeIds": [
            "MTA NYCT_B13"
        ],
        "wheelchairBoarding": "UNKNOWN"
    },
    {
        "code": "301439",
        "direction": "W",
        "id": "MTA_301439",
        "lat": 40.68868,
        "locationType": 0,
        "lon": -73.875592,
        "name": "JAMAICA AV/CYPRESS HILLS ST",
        "routeIds": [
            "MTA NYCT_B13"
        ],
        "wheelchairBoarding": "UNKNOWN"
    },
    {
        "code": "301492",
        "direction": "SE",
        "id": "MTA_301492",
        "lat": 40.688745,
        "locationType": 0,
        "lon": -73.875937,
        "name": "CYPRESS HILLS ST/JAMAICA AV",
        "routeIds": [
            "MTA NYCT_B13"
        ],
        "wheelchairBoarding": "UNKNOWN"
    },
    {
        "code": "301493",
        "direction": "NE",
        "id": "MTA_301493",
        "lat": 40.689224,
        "locationType": 0,
        "lon": -73.874067,
        "name": "JAMAICA AV/CRESCENT ST",
        "routeIds": [
            "MTA NYCT_B13",
            "MTA NYCT_Q56"
        ],
        "wheelchairBoarding": "UNKNOWN"
    },
    {
        "code": "301494",
        "direction": "NE",
        "id": "MTA_301494",
        "lat": 40.689797,
        "locationType": 0,
        "lon": -73.872708,
        "name": "JAMAICA AV/HEMLOCK ST",
        "routeIds": [
            "MTA NYCT_B13",
            "MTA NYCT_J90",
            "MTA NYCT_Q56"
        ],
        "wheelchairBoarding": "UNKNOWN"
    },
    {
        "code": "301495",
        "direction": "S",
        "id": "MTA_301495",
        "lat": 40.686779,
        "locationType": 0,
        "lon": -73.873232,
        "name": "CRESCENT ST/ETNA ST",
        "routeIds": [
            "MTA NYCT_B13"
        ],
        "wheelchairBoarding": "UNKNOWN"
    },
    {
        "code": "301496",
        "direction": "S",
        "id": "MTA_301496",
        "lat": 40.685109,
        "locationType": 0,
        "lon": -73.872714,
        "name": "CRESCENT ST/RIDGEWOOD AV",
        "routeIds": [
            "MTA NYCT_B13"
        ],
        "wheelchairBoarding": "UNKNOWN"
    },
    {
        "code": "301497",
        "direction": "S",
        "id": "MTA_301497",
        "lat": 40.683379,
        "locationType": 0,
        "lon": -73.872165,
        "name": "CRESCENT ST/FULTON ST",
        "routeIds": [
            "MTA NYCT_B13"
        ],
        "wheelchairBoarding": "UNKNOWN"
    },
    {
        "code": "301499",
        "direction": "S",
        "id": "MTA_301499",
        "lat": 40.680106,
        "locationType": 0,
        "lon": -73.871245,
        "name": "CRESCENT ST/WELDON ST",
        "routeIds": [
            "MTA NYCT_B13"
        ],
        "wheelchairBoarding": "UNKNOWN"
    },
    {
        "code": "301500",
        "direction": "S",
        "id": "MTA_301500",
        "lat": 40.678255,
        "locationType": 0,
        "lon": -73.87078,
        "name": "CRESCENT ST/LIBERTY AV",
        "routeIds": [
            "MTA NYCT_B13"
        ],
        "wheelchairBoarding": "UNKNOWN"
    },
    {
        "code": "301501",
        "direction": "S",
        "id": "MTA_301501",
        "lat": 40.67758,
        "locationType": 0,
        "lon": -73.87253,
        "name": "EUCLID AV/LIBERTY AV",
        "routeIds": [
            "MTA NYCT_B13"
        ],
        "wheelchairBoarding": "UNKNOWN"
    },
    {
        "code": "301503",
        "direction": "S",
        "id": "MTA_301503",
        "lat": 40.675032,
        "locationType": 0,
        "lon": -73.871889,
        "name": "EUCLID AV/PITKIN AV",
        "routeIds": [
            "MTA NYCT_B13"
        ],
        "wheelchairBoarding": "UNKNOWN"
    },
    {
        "code": "301504",
        "direction": "S",
        "id": "MTA_301504",
        "lat": 40.673887,
        "locationType": 0,
        "lon": -73.871607,
        "name": "EUCLID AV/BELMONT AV",
        "routeIds": [
            "MTA NYCT_B13"
        ],
        "wheelchairBoarding": "UNKNOWN"
    },
    {
        "code": "301505",
        "direction": "S",
        "id": "MTA_301505",
        "lat": 40.672523,
        "locationType": 0,
        "lon": -73.871299,
        "name": "EUCLID AV/SUTTER AV",
        "routeIds": [
            "MTA NYCT_B13",
            "MTABC_Q08"
        ],
        "wheelchairBoarding": "UNKNOWN"
    },
    {
        "code": "301506",
        "direction": "S",
        "id": "MTA_301506",
        "lat": 40.670977,
        "locationType": 0,
        "lon": -73.870909,
        "name": "EUCLID AV/BLAKE AV",
        "routeIds": [
            "MTA NYCT_B13",
            "MTABC_Q08"
        ],
        "wheelchairBoarding": "UNKNOWN"
    },
    {
        "code": "301507",
        "direction": "S",
        "id": "MTA_301507",
        "lat": 40.669486,
        "locationType": 0,
        "lon": -73.870512,
        "name": "EUCLID AV/DUMONT AV",
        "routeIds": [
            "MTA NYCT_B13"
        ],
        "wheelchairBoarding": "UNKNOWN"
    },
    {
        "code": "301511",
        "direction": "S",
        "id": "MTA_301511",
        "lat": 40.665146,
        "locationType": 0,
        "lon": -73.867532,
        "name": "CRESCENT ST/STANLEY AV",
        "routeIds": [
            "MTA NYCT_B13"
        ],
        "wheelchairBoarding": "UNKNOWN"
    },
    {
        "code": "301512",
        "direction": "S",
        "id": "MTA_301512",
        "lat": 40.66357,
        "locationType": 0,
        "lon": -73.867143,
        "name": "CRESCENT ST/WORTMAN AV",
        "routeIds": [
            "MTA NYCT_B13"
        ],
        "wheelchairBoarding": "UNKNOWN"
    },
    {
        "code": "301550",
        "direction": "E",
        "id": "MTA_301550",
        "lat": 40.67281,
        "locationType": 0,
        "lon": -73.871152,
        "name": "SUTTER AV/EUCLID AV",
        "routeIds": [
            "MTA NYCT_B13",
            "MTA NYCT_B14"
        ],
        "wheelchairBoarding": "UNKNOWN"
    },
    {
        "code": "301551",
        "direction": "N",
        "id": "MTA_301551",
        "lat": 40.673311,
        "locationType": 0,
        "lon": -73.869405,
        "name": "CRESCENT ST/SUTTER AV",
        "routeIds": [
            "MTA NYCT_B13"
        ],
        "wheelchairBoarding": "UNKNOWN"
    },
    {
        "code": "301839",
        "direction": "NW",
        "id": "MTA_301839",
        "lat": 40.70141,
        "locationType": 0,
        "lon": -73.91436,
        "name": "WYCKOFF AV/MENAHAN ST",
        "routeIds": [
            "MTA NYCT_B13"
        ],
        "wheelchairBoarding": "UNKNOWN"
    },
    {
        "code": "301840",
        "direction": "NW",
        "id": "MTA_301840",
        "lat": 40.702309,
        "locationType": 0,
        "lon": -73.915924,
        "name": "WYCKOFF AV/GREENE AV",
        "routeIds": [
            "MTA NYCT_B13"
        ],
        "wheelchairBoarding": "UNKNOWN"
    },
    {
        "code": "301841",
        "direction": "NW",
        "id": "MTA_301841",
        "lat": 40.703119,
        "locationType": 0,
        "lon": -73.917182,
        "name": "WYCKOFF AV/STANHOPE ST",
        "routeIds": [
            "MTA NYCT_B13"
        ],
        "wheelchairBoarding": "UNKNOWN"
    },
    {
        "code": "301879",
        "direction": "SE",
        "id": "MTA_301879",
        "lat": 40.704324,
        "locationType": 0,
        "lon": -73.91937,
        "name": "WYCKOFF AV/DE KALB AV",
        "routeIds": [
            "MTA NYCT_B13",
            "MTA NYCT_L90"
        ],
        "wheelchairBoarding": "UNKNOWN"
    },
    {
        "code": "301880",
        "direction": "SE",
        "id": "MTA_301880",
        "lat": 40.703163,
        "locationType": 0,
        "lon": -73.917502,
        "name": "WYCKOFF AV/STANHOPE ST",
        "routeIds": [
            "MTA NYCT_B13"
        ],
        "wheelchairBoarding": "UNKNOWN"
    },
    {
        "code": "301881",
        "direction": "SE",
        "id": "MTA_301881",
        "lat": 40.702268,
        "locationType": 0,
        "lon": -73.916072,
        "name": "WYCKOFF AV/HARMAN ST",
        "routeIds": [
            "MTA NYCT_B13"
        ],
        "wheelchairBoarding": "UNKNOWN"
    },
    {
        "code": "301882",
        "direction": "SE",
        "id": "MTA_301882",
        "lat": 40.701396,
        "locationType": 0,
        "lon": -73.914572,
        "name": "WYCKOFF AV/BLEECKER ST",
        "routeIds": [
            "MTA NYCT_B13"
        ],
        "wheelchairBoarding": "UNKNOWN"
    },
    {
        "code": "301883",
        "direction": "SE",
        "id": "MTA_301883",
        "lat": 40.700553,
        "locationType": 0,
        "lon": -73.913041,
        "name": "WYCKOFF AV/GROVE ST",
        "routeIds": [
            "MTA NYCT_B13"
        ],
        "wheelchairBoarding": "UNKNOWN"
    },
    {
        "code": "303043",
        "direction": "NE",
        "id": "MTA_303043",
        "lat": 40.704487,
        "locationType": 0,
        "lon": -73.918961,
        "name": "DE KALB AV/WYCKOFF AV",
        "routeIds": [
            "MTA NYCT_B13",
            "MTA NYCT_B38"
        ],
        "wheelchairBoarding": "UNKNOWN"
    },
    {
        "code": "306291",
        "direction": "S",
        "id": "MTA_306291",
        "lat": 40.66824,
        "locationType": 0,
        "lon": -73.87016,
        "name": "EUCLID AV/LINDEN BLVD",
        "routeIds": [
            "MTA NYCT_B13",
            "MTABC_Q08"
        ],
        "wheelchairBoarding": "UNKNOWN"
    },
    {
        "code": "306292",
        "direction": "W",
        "id": "MTA_306292",
        "lat": 40.662247,
        "locationType": 0,
        "lon": -73.86717,
        "name": "COZINE AV/CRESCENT ST",
        "routeIds": [
            "MTA NYCT_B13"
        ],
        "wheelchairBoarding": "UNKNOWN"
    },
    {
        "code": "306359",
        "direction": "N",
        "id": "MTA_306359",
        "lat": 40.689202,
        "locationType": 0,
        "lon": -73.873875,
        "name": "CRESCENT ST/JAMAICA AV",
        "routeIds": [
            "MTA NYCT_B13"
        ],
        "wheelchairBoarding": "UNKNOWN"
    },
    {
        "code": "307181",
        "direction": "SE",
        "id": "MTA_307181",
        "lat": 40.655802,
        "locationType": 0,
        "lon": -73.863652,
        "name": "FOUNTAIN AV/BROOKLYN DEVELOPMENTAL CENTER",
        "routeIds": [
            "MTA NYCT_B13",
            "MTA NYCT_B84",
            "MTABC_Q08"
        ],
        "wheelchairBoarding": "UNKNOWN"
    },
    {
        "code": "307269",
        "direction": "E",
        "id": "MTA_307269",
        "lat": 40.664717,
        "locationType": 0,
        "lon": -73.862732,
        "name": "POSTAL FACILITY RD/BROOKLYN MAIL FACILITY",
        "routeIds": [
            "MTA NYCT_B13",
            "MTA NYCT_B14"
        ],
        "wheelchairBoarding": "UNKNOWN"
    },
    {
        "code": "307599",
        "direction": "N",
        "id": "MTA_307599",
        "lat": 40.668189,
        "locationType": 0,
        "lon": -73.862477,
        "name": "ELDERT LN/LORING AV",
        "routeIds": [
            "MTA NYCT_B13",
            "MTA NYCT_B14",
            "MTA NYCT_B15",
            "MTA NYCT_B20"
        ],
        "wheelchairBoarding": "UNKNOWN"
    },
    {
        "code": "307627",
        "direction": "E",
        "id": "MTA_307627",
        "lat": 40.668758,
        "locationType": 0,
        "lon": -73.866234,
        "name": "LINDEN BLVD/AUTUMN AV",
        "routeIds": [
            "MTA NYCT_B13",
            "MTA NYCT_B15",
            "MTA NYCT_B20"
        ],
        "wheelchairBoarding": "UNKNOWN"
    },
    {
        "code": "307628",
        "direction": "S",
        "id": "MTA_307628",
        "lat": 40.669125,
        "locationType": 0,
        "lon": -73.862818,
        "name": "ELDERT LN/LINDEN BLVD",
        "routeIds": [
            "MTA NYCT_B13",
            "MTA NYCT_B20"
        ],
        "wheelchairBoarding": "UNKNOWN"
    },
    {
        "code": "307629",
        "direction": "S",
        "id": "MTA_307629",
        "lat": 40.667652,
        "locationType": 0,
        "lon": -73.86246,
        "name": "ELDERT LN/LORING AV",
        "routeIds": [
            "MTA NYCT_B13",
            "MTA NYCT_B14",
            "MTA NYCT_B20"
        ],
        "wheelchairBoarding": "UNKNOWN"
    },
    {
        "code": "307649",
        "direction": "SE",
        "id": "MTA_307649",
        "lat": 40.659987,
        "locationType": 0,
        "lon": -73.866959,
        "name": "FOUNTAIN AV/FLATLANDS AV",
        "routeIds": [
            "MTA NYCT_B13",
            "MTA NYCT_B84",
            "MTABC_Q08"
        ],
        "wheelchairBoarding": "UNKNOWN"
    },
    {
        "code": "307896",
        "direction": "W",
        "id": "MTA_307896",
        "lat": 40.666252,
        "locationType": 0,
        "lon": -73.862215,
        "name": "STANLEY AV/ELDERT LN",
        "routeIds": [
            "MTA NYCT_B13",
            "MTA NYCT_B14",
            "MTA NYCT_B20"
        ],
        "wheelchairBoarding": "UNKNOWN"
    },
    {
        "code": "307922",
        "direction": "NW",
        "id": "MTA_307922",
        "lat": 40.660245,
        "locationType": 0,
        "lon": -73.866942,
        "name": "FOUNTAIN AV/FLATLANDS AV",
        "routeIds": [
            "MTA NYCT_B13",
            "MTABC_Q08"
        ],
        "wheelchairBoarding": "UNKNOWN"
    },
    {
        "code": "307969",
        "direction": "E",
        "id": "MTA_307969",
        "lat": 40.665458,
        "locationType": 0,
        "lon": -73.867081,
        "name": "STANLEY AV/CRESCENT ST",
        "routeIds": [
            "MTA NYCT_B13"
        ],
        "wheelchairBoarding": "UNKNOWN"
    },
    {
        "code": "307971",
        "direction": "E",
        "id": "MTA_307971",
        "lat": 40.666053,
        "locationType": 0,
        "lon": -73.863201,
        "name": "STANLEY AV/SHERIDAN AV",
        "routeIds": [
            "MTA NYCT_B13",
            "MTA NYCT_B14",
            "MTA NYCT_B20"
        ],
        "wheelchairBoarding": "UNKNOWN"
    },
    {
        "code": "308006",
        "direction": "W",
        "id": "MTA_308006",
        "lat": 40.6658,
        "locationType": 0,
        "lon": -73.865559,
        "name": "STANLEY AV/AUTUMN AV",
        "routeIds": [
            "MTA NYCT_B13"
        ],
        "wheelchairBoarding": "UNKNOWN"
    },
    {
        "code": "308370",
        "direction": "N",
        "id": "MTA_308370",
        "lat": 40.66859,
        "locationType": 0,
        "lon": -73.870157,
        "name": "EUCLID AV/LINDEN BLVD",
        "routeIds": [
            "MTA NYCT_B13"
        ],
        "wheelchairBoarding": "UNKNOWN"
    },
    {
        "code": "308371",
        "direction": "N",
        "id": "MTA_308371",
        "lat": 40.671671,
        "locationType": 0,
        "lon": -73.870922,
        "name": "EUCLID AV/BLAKE AV",
        "routeIds": [
            "MTA NYCT_B13"
        ],
        "wheelchairBoarding": "UNKNOWN"
    },
    {
        "code": "308377",
        "direction": "N",
        "id": "MTA_308377",
        "lat": 40.682083,
        "locationType": 0,
        "lon": -73.871634,
        "name": "CRESCENT ST/ATLANTIC AV",
        "routeIds": [
            "MTA NYCT_B13"
        ],
        "wheelchairBoarding": "UNKNOWN"
    },
    {
        "code": "308449",
        "direction": "N",
        "id": "MTA_308449",
        "lat": 40.67976,
        "locationType": 0,
        "lon": -73.871,
        "name": "CRESCENT ST/MCKINLEY AV",
        "routeIds": [
            "MTA NYCT_B13"
        ],
        "wheelchairBoarding": "UNKNOWN"
    },
    {
        "code": "308450",
        "direction": "S",
        "id": "MTA_308450",
        "lat": 40.681434,
        "locationType": 0,
        "lon": -73.871555,
        "name": "CRESCENT ST/ATLANTIC AV",
        "routeIds": [
            "MTA NYCT_B13"
        ],
        "wheelchairBoarding": "UNKNOWN"
    },
    {
        "code": "308664",
        "direction": "NE",
        "id": "MTA_308664",
        "lat": 40.657858,
        "locationType": 0,
        "lon": -73.868064,
        "name": "VANDALIA AV/ERSKINE ST",
        "routeIds": [
            "MTA NYCT_B13",
            "MTA NYCT_B84",
            "MTABC_Q08"
        ],
        "wheelchairBoarding": "UNKNOWN"
    },
    {
        "code": "503454",
        "direction": "E",
        "id": "MTA_503454",
        "lat": 40.704678,
        "locationType": 0,
        "lon": -73.900551,
        "name": "67 AV/60 ST",
        "routeIds": [
            "MTA NYCT_B13",
            "MTA NYCT_B20",
            "MTA NYCT_Q58"
        ],
        "wheelchairBoarding": "UNKNOWN"
    },
    {
        "code": "503455",
        "direction": "E",
        "id": "MTA_503455",
        "lat": 40.705683,
        "locationType": 0,
        "lon": -73.896695,
        "name": "67 AV/FRESH POND RD",
        "routeIds": [
            "MTA NYCT_B13",
            "MTA NYCT_B20",
            "MTA NYCT_Q58"
        ],
        "wheelchairBoarding": "UNKNOWN"
    },
    {
        "code": "503639",
        "direction": "S",
        "id": "MTA_503639",
        "lat": 40.698349,
        "locationType": 0,
        "lon": -73.893955,
        "name": "61 ST/75 AV",
        "routeIds": [
            "MTA NYCT_B13"
        ],
        "wheelchairBoarding": "UNKNOWN"
    },
    {
        "code": "503641",
        "direction": "S",
        "id": "MTA_503641",
        "lat": 40.697218,
        "locationType": 0,
        "lon": -73.89377,
        "name": "61 ST/ST FELIX AV",
        "routeIds": [
            "MTA NYCT_B13",
            "MTABC_Q39"
        ],
        "wheelchairBoarding": "UNKNOWN"
    },
    {
        "code": "503642",
        "direction": "N",
        "id": "MTA_503642",
        "lat": 40.698636,
        "locationType": 0,
        "lon": -73.892974,
        "name": "62 ST/75 AV",
        "routeIds": [
            "MTA NYCT_B13"
        ],
        "wheelchairBoarding": "UNKNOWN"
    },
    {
        "code": "503643",
        "direction": "N",
        "id": "MTA_503643",
        "lat": 40.700794,
        "locationType": 0,
        "lon": -73.89328,
        "name": "62 ST/MYRTLE AV",
        "routeIds": [
            "MTA NYCT_B13"
        ],
        "wheelchairBoarding": "UNKNOWN"
    },
    {
        "code": "504094",
        "direction": "NW",
        "id": "MTA_504094",
        "lat": 40.692569,
        "locationType": 0,
        "lon": -73.882804,
        "name": "CYPRESS HILL ST/CYPRESS AV",
        "routeIds": [
            "MTA NYCT_B13"
        ],
        "wheelchairBoarding": "UNKNOWN"
    },
    {
        "code": "504095",
        "direction": "NW",
        "id": "MTA_504095",
        "lat": 40.693704,
        "locationType": 0,
        "lon": -73.884168,
        "name": "CYPRESS HILL ST/MACHPELAH CEMETERY",
        "routeIds": [
            "MTA NYCT_B13"
        ],
        "wheelchairBoarding": "UNKNOWN"
    },
    {
        "code": "504096",
        "direction": "NW",
        "id": "MTA_504096",
        "lat": 40.695278,
        "locationType": 0,
        "lon": -73.885384,
        "name": "CYPRESS HILL ST/MOUNT NEBOH CEMETERY",
        "routeIds": [
            "MTA NYCT_B13"
        ],
        "wheelchairBoarding": "UNKNOWN"
    },
    {
        "code": "504099",
        "direction": "W",
        "id": "MTA_504099",
        "lat": 40.698624,
        "locationType": 0,
        "lon": -73.889176,
        "name": "COOPER AV/65 ST",
        "routeIds": [
            "MTA NYCT_B13"
        ],
        "wheelchairBoarding": "UNKNOWN"
    },
    {
        "code": "504100",
        "direction": "W",
        "id": "MTA_504100",
        "lat": 40.698206,
        "locationType": 0,
        "lon": -73.891016,
        "name": "COOPER AV/64 PL",
        "routeIds": [
            "MTA NYCT_B13"
        ],
        "wheelchairBoarding": "UNKNOWN"
    },
    {
        "code": "504101",
        "direction": "W",
        "id": "MTA_504101",
        "lat": 40.697799,
        "locationType": 0,
        "lon": -73.892795,
        "name": "COOPER AV/62 ST",
        "routeIds": [
            "MTA NYCT_B13"
        ],
        "wheelchairBoarding": "UNKNOWN"
    },
    {
        "code": "504102",
        "direction": "N",
        "id": "MTA_504102",
        "lat": 40.701221,
        "locationType": 0,
        "lon": -73.894632,
        "name": "FRESH POND RD/MYRTLE AV",
        "routeIds": [
            "MTA NYCT_B13",
            "MTA NYCT_B20"
        ],
        "wheelchairBoarding": "UNKNOWN"
    },
    {
        "code": "504104",
        "direction": "N",
        "id": "MTA_504104",
        "lat": 40.702876,
        "locationType": 0,
        "lon": -73.895221,
        "name": "FRESH POND RD/70 AV",
        "routeIds": [
            "MTA NYCT_B13",
            "MTA NYCT_B20"
        ],
        "wheelchairBoarding": "UNKNOWN"
    },
    {
        "code": "504105",
        "direction": "NW",
        "id": "MTA_504105",
        "lat": 40.704257,
        "locationType": 0,
        "lon": -73.895745,
        "name": "FRESH POND RD/CATALPA AV",
        "routeIds": [
            "MTA NYCT_B13",
            "MTA NYCT_B20",
            "MTABC_QM24",
            "MTABC_QM25",
            "MTABC_QM34"
        ],
        "wheelchairBoarding": "UNKNOWN"
    },
    {
        "code": "504106",
        "direction": "NW",
        "id": "MTA_504106",
        "lat": 40.705542,
        "locationType": 0,
        "lon": -73.896375,
        "name": "FRESH POND RD/68 AV",
        "routeIds": [
            "MTA NYCT_B13",
            "MTA NYCT_B20"
        ],
        "wheelchairBoarding": "UNKNOWN"
    },
    {
        "code": "504107",
        "direction": "W",
        "id": "MTA_504107",
        "lat": 40.706427,
        "locationType": 0,
        "lon": -73.897352,
        "name": "PUTNAM AV/FRESH POND RD",
        "routeIds": [
            "MTA NYCT_B13",
            "MTA NYCT_B20",
            "MTA NYCT_M90",
            "MTA NYCT_Q58"
        ],
        "wheelchairBoarding": "UNKNOWN"
    },
    {
        "code": "504109",
        "direction": "W",
        "id": "MTA_504109",
        "lat": 40.705216,
        "locationType": 0,
        "lon": -73.901966,
        "name": "PUTNAM AV/FOREST AV",
        "routeIds": [
            "MTA NYCT_B13",
            "MTA NYCT_B20",
            "MTA NYCT_Q58"
        ],
        "wheelchairBoarding": "UNKNOWN"
    },
    {
        "code": "504110",
        "direction": "NW",
        "id": "MTA_504110",
        "lat": 40.706731,
        "locationType": 0,
        "lon": -73.902919,
        "name": "FOREST AV/WOODBINE ST",
        "routeIds": [
            "MTA NYCT_B13",
            "MTABC_Q39"
        ],
        "wheelchairBoarding": "UNKNOWN"
    },
    {
        "code": "504111",
        "direction": "SW",
        "id": "MTA_504111",
        "lat": 40.707497,
        "locationType": 0,
        "lon": -73.904122,
        "name": "GATES AV/GRANDVIEW AV",
        "routeIds": [
            "MTA NYCT_B13"
        ],
        "wheelchairBoarding": "UNKNOWN"
    },
    {
        "code": "504112",
        "direction": "SW",
        "id": "MTA_504112",
        "lat": 40.706146,
        "locationType": 0,
        "lon": -73.905557,
        "name": "GATES AV/FAIRVIEW AV",
        "routeIds": [
            "MTA NYCT_B13"
        ],
        "wheelchairBoarding": "UNKNOWN"
    },
    {
        "code": "504113",
        "direction": "SW",
        "id": "MTA_504113",
        "lat": 40.705063,
        "locationType": 0,
        "lon": -73.906654,
        "name": "GATES AV/WOODWARD AV",
        "routeIds": [
            "MTA NYCT_B13"
        ],
        "wheelchairBoarding": "UNKNOWN"
    },
    {
        "code": "504114",
        "direction": "SW",
        "id": "MTA_504114",
        "lat": 40.703933,
        "locationType": 0,
        "lon": -73.907814,
        "name": "GATES AV/ONDERDONK AV",
        "routeIds": [
            "MTA NYCT_B13"
        ],
        "wheelchairBoarding": "UNKNOWN"
    },
    {
        "code": "504115",
        "direction": "SW",
        "id": "MTA_504115",
        "lat": 40.703019,
        "locationType": 0,
        "lon": -73.908746,
        "name": "GATES AV/SENECA AV",
        "routeIds": [
            "MTA NYCT_B13"
        ],
        "wheelchairBoarding": "UNKNOWN"
    },
    {
        "code": "504116",
        "direction": "SW",
        "id": "MTA_504116",
        "lat": 40.702221,
        "locationType": 0,
        "lon": -73.909555,
        "name": "GATES AV/CYPRESS AV",
        "routeIds": [
            "MTA NYCT_B13"
        ],
        "wheelchairBoarding": "UNKNOWN"
    },
    {
        "code": "504118",
        "direction": "SW",
        "id": "MTA_504118",
        "lat": 40.701149,
        "locationType": 0,
        "lon": -73.910645,
        "name": "GATES AV/SAINT NICHOLAS AV",
        "routeIds": [
            "MTA NYCT_B13"
        ],
        "wheelchairBoarding": "UNKNOWN"
    },
    {
        "code": "504119",
        "direction": "SW",
        "id": "MTA_504119",
        "lat": 40.70005,
        "locationType": 0,
        "lon": -73.911769,
        "name": "GATES AV/WYCKOFF AV",
        "routeIds": [
            "MTA NYCT_B13",
            "MTA NYCT_B52",
            "MTA NYCT_M90"
        ],
        "wheelchairBoarding": "UNKNOWN"
    },
    {
        "code": "504120",
        "direction": "NE",
        "id": "MTA_504120",
        "lat": 40.703466,
        "locationType": 0,
        "lon": -73.908132,
        "name": "GATES AV/SENECA AV",
        "routeIds": [
            "MTA NYCT_B13"
        ],
        "wheelchairBoarding": "UNKNOWN"
    },
    {
        "code": "504121",
        "direction": "NE",
        "id": "MTA_504121",
        "lat": 40.704369,
        "locationType": 0,
        "lon": -73.907207,
        "name": "GATES AV/ONDERDONK AV",
        "routeIds": [
            "MTA NYCT_B13"
        ],
        "wheelchairBoarding": "UNKNOWN"
    },
    {
        "code": "504122",
        "direction": "NE",
        "id": "MTA_504122",
        "lat": 40.705488,
        "locationType": 0,
        "lon": -73.906062,
        "name": "GATES AV/WOODWARD AV",
        "routeIds": [
            "MTA NYCT_B13"
        ],
        "wheelchairBoarding": "UNKNOWN"
    },
    {
        "code": "504123",
        "direction": "NE",
        "id": "MTA_504123",
        "lat": 40.70656,
        "locationType": 0,
        "lon": -73.904968,
        "name": "GATES AV/FAIRVIEW AV",
        "routeIds": [
            "MTA NYCT_B13"
        ],
        "wheelchairBoarding": "UNKNOWN"
    },
    {
        "code": "504124",
        "direction": "SE",
        "id": "MTA_504124",
        "lat": 40.707327,
        "locationType": 0,
        "lon": -73.903755,
        "name": "GRANDVIEW AV/GATES AV",
        "routeIds": [
            "MTA NYCT_B13"
        ],
        "wheelchairBoarding": "UNKNOWN"
    },
    {
        "code": "504125",
        "direction": "SE",
        "id": "MTA_504125",
        "lat": 40.706091,
        "locationType": 0,
        "lon": -73.902678,
        "name": "FOREST AV/WOODBINE ST",
        "routeIds": [
            "MTA NYCT_B13",
            "MTABC_Q39"
        ],
        "wheelchairBoarding": "UNKNOWN"
    },
    {
        "code": "504126",
        "direction": "S",
        "id": "MTA_504126",
        "lat": 40.705213,
        "locationType": 0,
        "lon": -73.902214,
        "name": "FOREST AV/PUTNAM AV",
        "routeIds": [
            "MTA NYCT_B13",
            "MTABC_Q39"
        ],
        "wheelchairBoarding": "UNKNOWN"
    },
    {
        "code": "504127",
        "direction": "S",
        "id": "MTA_504127",
        "lat": 40.70364,
        "locationType": 0,
        "lon": -73.895646,
        "name": "FRESH POND RD/CATALPA AV",
        "routeIds": [
            "MTA NYCT_B13",
            "MTA NYCT_B20",
            "MTABC_QM24",
            "MTABC_QM25",
            "MTABC_QM34"
        ],
        "wheelchairBoarding": "UNKNOWN"
    },
    {
        "code": "504129",
        "direction": "S",
        "id": "MTA_504129",
        "lat": 40.702648,
        "locationType": 0,
        "lon": -73.895308,
        "name": "FRESH POND RD/70 AV",
        "routeIds": [
            "MTA NYCT_B13",
            "MTA NYCT_B20"
        ],
        "wheelchairBoarding": "UNKNOWN"
    },
    {
        "code": "504130",
        "direction": "S",
        "id": "MTA_504130",
        "lat": 40.700889,
        "locationType": 0,
        "lon": -73.894687,
        "name": "FRESH POND RD/MYRTLE AV",
        "routeIds": [
            "MTA NYCT_B13",
            "MTA NYCT_B20",
            "MTABC_QM24",
            "MTABC_QM25",
            "MTABC_QM34"
        ],
        "wheelchairBoarding": "UNKNOWN"
    },
    {
        "code": "504131",
        "direction": "E",
        "id": "MTA_504131",
        "lat": 40.697856,
        "locationType": 0,
        "lon": -73.892109,
        "name": "COOPER AV/64 ST",
        "routeIds": [
            "MTA NYCT_B13"
        ],
        "wheelchairBoarding": "UNKNOWN"
    },
    {
        "code": "504132",
        "direction": "E",
        "id": "MTA_504132",
        "lat": 40.698271,
        "locationType": 0,
        "lon": -73.890309,
        "name": "COOPER AV/64 LN",
        "routeIds": [
            "MTA NYCT_B13"
        ],
        "wheelchairBoarding": "UNKNOWN"
    },
    {
        "code": "504133",
        "direction": "E",
        "id": "MTA_504133",
        "lat": 40.698714,
        "locationType": 0,
        "lon": -73.88835,
        "name": "COOPER AV/CYPRESS HILL ST",
        "routeIds": [
            "MTA NYCT_B13"
        ],
        "wheelchairBoarding": "UNKNOWN"
    },
    {
        "code": "504136",
        "direction": "SE",
        "id": "MTA_504136",
        "lat": 40.695435,
        "locationType": 0,
        "lon": -73.8857,
        "name": "CYPRESS HILLS ST/BETH-EL CEMETERY",
        "routeIds": [
            "MTA NYCT_B13"
        ],
        "wheelchairBoarding": "UNKNOWN"
    },
    {
        "code": "504137",
        "direction": "SE",
        "id": "MTA_504137",
        "lat": 40.693626,
        "locationType": 0,
        "lon": -73.88431,
        "name": "CYPRESS HILLS ST/MACHPELAH CEMETERY",
        "routeIds": [
            "MTA NYCT_B13"
        ],
        "wheelchairBoarding": "UNKNOWN"
    },
    {
        "code": "504138",
        "direction": "SE",
        "id": "MTA_504138",
        "lat": 40.692468,
        "locationType": 0,
        "lon": -73.882906,
        "name": "CYPRESS HILLS ST/CYPRESS AV",
        "routeIds": [
            "MTA NYCT_B13"
        ],
        "wheelchairBoarding": "UNKNOWN"
    },
    {
        "code": "505101",
        "direction": "NE",
        "id": "MTA_505101",
        "lat": 40.702312,
        "locationType": 0,
        "lon": -73.909309,
        "name": "GATES AV/CYPRESS AV",
        "routeIds": [
            "MTA NYCT_B13"
        ],
        "wheelchairBoarding": "UNKNOWN"
    },
    {
        "code": "801118",
        "direction": "NE",
        "id": "MTA_801118",
        "lat": 40.700094,
        "locationType": 0,
        "lon": -73.91155,
        "name": "GATES AV/WYCKOFF AV",
        "routeIds": [
            "MTA NYCT_B13"
        ],
        "wheelchairBoarding": "UNKNOWN"
    },
    {
        "code": "801168",
        "direction": "SE",
        "id": "MTA_801168",
        "lat": 40.652693,
        "locationType": 0,
        "lon": -73.87689,
        "name": "GATEWAY CENTER TERMINAL/GATEWAY DR",
        "routeIds": [
            "MTA NYCT_B13",
            "MTA NYCT_B83"
        ],
        "wheelchairBoarding": "UNKNOWN"
    },
    {
        "code": "901269",
        "direction": "SE",
        "id": "MTA_901269",
        "lat": 40.704385,
        "locationType": 0,
        "lon": -73.919467,
        "name": "WYCKOFF AV/DE KALB AV",
        "routeIds": [
            "MTA NYCT_B13"
        ],
        "wheelchairBoarding": "UNKNOWN"
    },
    {
        "code": "901273",
        "direction": "SW",
        "id": "MTA_901273",
        "lat": 40.653386,
        "locationType": 0,
        "lon": -73.86608,
        "name": "SEAVIEW AV/ERSKINE ST",
        "routeIds": [
            "MTA NYCT_B13",
            "MTA NYCT_B84"
        ],
        "wheelchairBoarding": "UNKNOWN"
    },
    {
        "code": "901475",
        "direction": "NW",
        "id": "MTA_901475",
        "lat": 40.652821,
        "locationType": 0,
        "lon": -73.876756,
        "name": "GATEWAY CENTER TERMINAL/GATEWAY DR",
        "routeIds": [
            "MTA NYCT_B13",
            "MTA NYCT_B83"
        ],
        "wheelchairBoarding": "UNKNOWN"
    },
    {
        "code": "901687",
        "direction": "S",
        "id": "MTA_901687",
        "lat": 40.676774,
        "locationType": 0,
        "lon": -73.872314,
        "name": "EUCLID AV/GLENMORE AV",
        "routeIds": [
            "MTA NYCT_B13"
        ],
        "wheelchairBoarding": "UNKNOWN"
    }
]