[
    {
        "code": "400176",
        "direction": "NW",
        "id": "MTA_400176",
        "lat": 40.731425,
        "locationType": 0,
        "lon": -73.992408,
        "name": "E 9 ST/BROADWAY",
        "routeIds": [
            "MTA NYCT_M8"
        ],
        "wheelchairBoarding": "UNKNOWN"
    },
    {
        "code": "400336",
        "direction": "SE",
        "id": "MTA_400336",
        "lat": 40.731417,
        "locationType": 0,
        "lon": -73.994502,
        "name": "E 8 ST/UNIVERSITY PL",
        "routeIds": [
            "MTA NYCT_M1",
            "MTA NYCT_M2",
            "MTA NYCT_M3",
            "MTA NYCT_M8",
            "MTA NYCT_M55"
        ],
        "wheelchairBoarding": "UNKNOWN"
    },
    {
        "code": "400337",
        "direction": "SE",
        "id": "MTA_400337",
        "lat": 40.730576,
        "locationType": 0,
        "lon": -73.99259,
        "name": "E 8 ST/MERCER ST",
        "routeIds": [
            "MTA NYCT_M1",
            "MTA NYCT_M2",
            "MTA NYCT_M3",
            "MTA NYCT_M8",
            "MTA NYCT_M55"
        ],
        "wheelchairBoarding": "UNKNOWN"
    },
    {
        "code": "401528",
        "direction": "N",
        "id": "MTA_401528",
        "lat": 40.732847,
        "locationType": 0,
        "lon": -74.010081,
        "name": "WEST ST/CHRISTOPHER ST",
        "routeIds": [
            "MTA NYCT_M8"
        ],
        "wheelchairBoarding": "UNKNOWN"
    },
    {
        "code": "401529",
        "direction": "E",
        "id": "MTA_401529",
        "lat": 40.73331,
        "locationType": 0,
        "lon": -74.008708,
        "name": "W 10 ST/WASHINGTON ST",
        "routeIds": [
            "MTA NYCT_M8"
        ],
        "wheelchairBoarding": "UNKNOWN"
    },
    {
        "code": "401531",
        "direction": "E",
        "id": "MTA_401531",
        "lat": 40.734005,
        "locationType": 0,
        "lon": -74.004254,
        "name": "W 10 ST/BLEECKER ST",
        "routeIds": [
            "MTA NYCT_M8"
        ],
        "wheelchairBoarding": "UNKNOWN"
    },
    {
        "code": "401532",
        "direction": "E",
        "id": "MTA_401532",
        "lat": 40.734228,
        "locationType": 0,
        "lon": -74.002587,
        "name": "W 10 ST/7 AV S",
        "routeIds": [
            "MTA NYCT_M8"
        ],
        "wheelchairBoarding": "UNKNOWN"
    },
    {
        "code": "401533",
        "direction": "E",
        "id": "MTA_401533",
        "lat": 40.734489,
        "locationType": 0,
        "lon": -74.001021,
        "name": "W 10 ST/WAVERLY PL",
        "routeIds": [
            "MTA NYCT_M8"
        ],
        "wheelchairBoarding": "UNKNOWN"
    },
    {
        "code": "401535",
        "direction": "SE",
        "id": "MTA_401535",
        "lat": 40.734143,
        "locationType": 0,
        "lon": -73.999729,
        "name": "GREENWICH AV/CHRISTOPHER ST",
        "routeIds": [
            "MTA NYCT_M8"
        ],
        "wheelchairBoarding": "UNKNOWN"
    },
    {
        "code": "401536",
        "direction": "SE",
        "id": "MTA_401536",
        "lat": 40.733369,
        "locationType": 0,
        "lon": -73.999159,
        "name": "W 8 ST/AV OF THE AMERICAS",
        "routeIds": [
            "MTA NYCT_M8"
        ],
        "wheelchairBoarding": "UNKNOWN"
    },
    {
        "code": "401538",
        "direction": "SE",
        "id": "MTA_401538",
        "lat": 40.732336,
        "locationType": 0,
        "lon": -73.996709,
        "name": "W 8 ST/5 AV",
        "routeIds": [
            "MTA NYCT_M8"
        ],
        "wheelchairBoarding": "UNKNOWN"
    },
    {
        "code": "401542",
        "direction": "E",
        "id": "MTA_401542",
        "lat": 40.729572,
        "locationType": 0,
        "lon": -73.990007,
        "name": "SAINT MARKS PL/3 AV",
        "routeIds": [
            "MTA NYCT_M8"
        ],
        "wheelchairBoarding": "UNKNOWN"
    },
    {
        "code": "401543",
        "direction": "SE",
        "id": "MTA_401543",
        "lat": 40.728611,
        "locationType": 0,
        "lon": -73.987848,
        "name": "SAINT MARKS PL/2 AV",
        "routeIds": [
            "MTA NYCT_M8"
        ],
        "wheelchairBoarding": "UNKNOWN"
    },
    {
        "code": "401544",
        "direction": "SE",
        "id": "MTA_401544",
        "lat": 40.727381,
        "locationType": 0,
        "lon": -73.984926,
        "name": "SAINT MARKS PL/1 AV",
        "routeIds": [
            "MTA NYCT_M8"
        ],
        "wheelchairBoarding": "UNKNOWN"
    },
    {
        "code": "401545",
        "direction": "SE",
        "id": "MTA_401545",
        "lat": 40.72672,
        "locationType": 0,
        "lon": -73.983353,
        "name": "SAINT MARKS PL/AVENUE A",
        "routeIds": [
            "MTA NYCT_M8"
        ],
        "wheelchairBoarding": "UNKNOWN"
    },
    {
        "code": "401547",
        "direction": "SE",
        "id": "MTA_401547",
        "lat": 40.727645,
        "locationType": 0,
        "lon": -73.981877,
        "name": "E 10 ST/AVENUE A",
        "routeIds": [
            "MTA NYCT_M8"
        ],
        "wheelchairBoarding": "UNKNOWN"
    },
    {
        "code": "401548",
        "direction": "SE",
        "id": "MTA_401548",
        "lat": 40.726672,
        "locationType": 0,
        "lon": -73.97959,
        "name": "E 10 ST/AVENUE B",
        "routeIds": [
            "MTA NYCT_M8"
        ],
        "wheelchairBoarding": "UNKNOWN"
    },
    {
        "code": "401549",
        "direction": "E",
        "id": "MTA_401549",
        "lat": 40.725667,
        "locationType": 0,
        "lon": -73.97722,
        "name": "E 10 ST/AVENUE C",
        "routeIds": [
            "MTA NYCT_M8"
        ],
        "wheelchairBoarding": "UNKNOWN"
    },
    {
        "code": "401552",
        "direction": "NW",
        "id": "MTA_401552",
        "lat": 40.726046,
        "locationType": 0,
        "lon": -73.977844,
        "name": "E 10 ST/AVENUE C",
        "routeIds": [
            "MTA NYCT_M8"
        ],
        "wheelchairBoarding": "UNKNOWN"
    },
    {
        "code": "401553",
        "direction": "NW",
        "id": "MTA_401553",
        "lat": 40.727049,
        "locationType": 0,
        "lon": -73.980214,
        "name": "E 10 ST/AVENUE B",
        "routeIds": [
            "MTA NYCT_M8"
        ],
        "wheelchairBoarding": "UNKNOWN"
    },
    {
        "code": "401554",
        "direction": "NW",
        "id": "MTA_401554",
        "lat": 40.727828,
        "locationType": 0,
        "lon": -73.982068,
        "name": "E 10 ST/AVENUE A",
        "routeIds": [
            "MTA NYCT_M8"
        ],
        "wheelchairBoarding": "UNKNOWN"
    },
    {
        "code": "401555",
        "direction": "NW",
        "id": "MTA_401555",
        "lat": 40.727464,
        "locationType": 0,
        "lon": -73.982999,
        "name": "E 9 ST/AVENUE A",
        "routeIds": [
            "MTA NYCT_M8"
        ],
        "wheelchairBoarding": "UNKNOWN"
    },
    {
        "code": "401556",
        "direction": "W",
        "id": "MTA_401556",
        "lat": 40.728392,
        "locationType": 0,
        "lon": -73.985207,
        "name": "E 9 ST/1 AV",
        "routeIds": [
            "MTA NYCT_M8"
        ],
        "wheelchairBoarding": "UNKNOWN"
    },
    {
        "code": "401557",
        "direction": "W",
        "id": "MTA_401557",
        "lat": 40.729413,
        "locationType": 0,
        "lon": -73.987642,
        "name": "E 9 ST/2 AV",
        "routeIds": [
            "MTA NYCT_M8"
        ],
        "wheelchairBoarding": "UNKNOWN"
    },
    {
        "code": "401558",
        "direction": "W",
        "id": "MTA_401558",
        "lat": 40.730094,
        "locationType": 0,
        "lon": -73.989262,
        "name": "E 9 ST/3 AV",
        "routeIds": [
            "MTA NYCT_M8"
        ],
        "wheelchairBoarding": "UNKNOWN"
    },
    {
        "code": "401559",
        "direction": "NW",
        "id": "MTA_401559",
        "lat": 40.730549,
        "locationType": 0,
        "lon": -73.990323,
        "name": "E 9 ST/4 AV",
        "routeIds": [
            "MTA NYCT_M8"
        ],
        "wheelchairBoarding": "UNKNOWN"
    },
    {
        "code": "401561",
        "direction": "NW",
        "id": "MTA_401561",
        "lat": 40.732356,
        "locationType": 0,
        "lon": -73.994609,
        "name": "E 9 ST/UNIVERSITY PL",
        "routeIds": [
            "MTA NYCT_M8"
        ],
        "wheelchairBoarding": "UNKNOWN"
    },
    {
        "code": "401562",
        "direction": "W",
        "id": "MTA_401562",
        "lat": 40.733089,
        "locationType": 0,
        "lon": -73.996367,
        "name": "W 9 ST/5 AV",
        "routeIds": [
            "MTA NYCT_M8"
        ],
        "wheelchairBoarding": "UNKNOWN"
    },
    {
        "code": "401563",
        "direction": "W",
        "id": "MTA_401563",
        "lat": 40.734156,
        "locationType": 0,
        "lon": -73.99891,
        "name": "W 9 ST/AVENUE OF THE AMERICAS",
        "routeIds": [
            "MTA NYCT_M8"
        ],
        "wheelchairBoarding": "UNKNOWN"
    },
    {
        "code": "401564",
        "direction": "W",
        "id": "MTA_401564",
        "lat": 40.734113,
        "locationType": 0,
        "lon": -73.999946,
        "name": "CHRISTOPHER ST/GREENWICH AV",
        "routeIds": [
            "MTA NYCT_M8"
        ],
        "wheelchairBoarding": "UNKNOWN"
    },
    {
        "code": "401565",
        "direction": "W",
        "id": "MTA_401565",
        "lat": 40.733747,
        "locationType": 0,
        "lon": -74.002197,
        "name": "CHRISTOPHER ST/WAVERLY PL",
        "routeIds": [
            "MTA NYCT_M8"
        ],
        "wheelchairBoarding": "UNKNOWN"
    },
    {
        "code": "401566",
        "direction": "W",
        "id": "MTA_401566",
        "lat": 40.733577,
        "locationType": 0,
        "lon": -74.003341,
        "name": "CHRISTOPHER ST/7 AV SOUTH",
        "routeIds": [
            "MTA NYCT_M8"
        ],
        "wheelchairBoarding": "UNKNOWN"
    },
    {
        "code": "401567",
        "direction": "W",
        "id": "MTA_401567",
        "lat": 40.733369,
        "locationType": 0,
        "lon": -74.004694,
        "name": "CHRISTOPHER ST/BLEECKER ST",
        "routeIds": [
            "MTA NYCT_M8"
        ],
        "wheelchairBoarding": "UNKNOWN"
    },
    {
        "code": "401568",
        "direction": "W",
        "id": "MTA_401568",
        "lat": 40.733141,
        "locationType": 0,
        "lon": -74.006159,
        "name": "CHRISTOPHER ST/HUDSON ST",
        "routeIds": [
            "MTA NYCT_M8"
        ],
        "wheelchairBoarding": "UNKNOWN"
    },
    {
        "code": "401569",
        "direction": "W",
        "id": "MTA_401569",
        "lat": 40.732852,
        "locationType": 0,
        "lon": -74.007927,
        "name": "CHRISTOPHER ST/GREENWICH ST",
        "routeIds": [
            "MTA NYCT_M8"
        ],
        "wheelchairBoarding": "UNKNOWN"
    },
    {
        "code": "401570",
        "direction": "W",
        "id": "MTA_401570",
        "lat": 40.732666,
        "locationType": 0,
        "lon": -74.009067,
        "name": "CHRISTOPHER ST/WASHINGTON ST",
        "routeIds": [
            "MTA NYCT_M8"
        ],
        "wheelchairBoarding": "UNKNOWN"
    },
    {
        "code": "401591",
        "direction": "SE",
        "id": "MTA_401591",
        "lat": 40.724868,
        "locationType": 0,
        "lon": -73.975315,
        "name": "E 10 ST/AVENUE D",
        "routeIds": [
            "MTA NYCT_M8",
            "MTA NYCT_M14D+"
        ],
        "wheelchairBoarding": "UNKNOWN"
    },
    {
        "code": "403312",
        "direction": "E",
        "id": "MTA_403312",
        "lat": 40.733775,
        "locationType": 0,
        "lon": -74.005849,
        "name": "W 10 ST/HUDSON ST",
        "routeIds": [
            "MTA NYCT_M8"
        ],
        "wheelchairBoarding": "UNKNOWN"
    },
    {
        "code": "403313",
        "direction": "E",
        "id": "MTA_403313",
        "lat": 40.733501,
        "locationType": 0,
        "lon": -74.007459,
        "name": "W 10 ST/GREENWICH ST",
        "routeIds": [
            "MTA NYCT_M8"
        ],
        "wheelchairBoarding": "UNKNOWN"
    },
    {
        "code": "403443",
        "direction": "NW",
        "id": "MTA_403443",
        "lat": 40.725082,
        "locationType": 0,
        "lon": -73.975456,
        "name": "E 10 ST/AVENUE D",
        "routeIds": [
            "MTA NYCT_M8",
            "MTA NYCT_M14D+"
        ],
        "wheelchairBoarding": "UNKNOWN"
    },
    {
        "code": "404010",
        "direction": "SE",
        "id": "MTA_404010",
        "lat": 40.730069,
        "locationType": 0,
        "lon": -73.991279,
        "name": "E 8 ST/LAFAYETTE ST",
        "routeIds": [
            "MTA NYCT_M1",
            "MTA NYCT_M2",
            "MTA NYCT_M3",
            "MTA NYCT_M8"
        ],
        "wheelchairBoarding": "UNKNOWN"
    },
    {
        "code": "803177",
        "direction": "NW",
        "id": "MTA_803177",
        "lat": 40.724689,
        "locationType": 0,
        "lon": -73.974548,
        "name": "AV D/LOOP",
        "routeIds": [
            "MTA NYCT_M8"
        ],
        "wheelchairBoarding": "UNKNOWN"
    },
    {
        "code": "903030",
        "direction": "N",
        "id": "MTA_903030",
        "lat": 40.732493,
        "locationType": 0,
        "lon": -74.010128,
        "name": "WEST ST/CHRISTOPHER ST",
        "routeIds": [
            "MTA NYCT_M8"
        ],
        "wheelchairBoarding": "UNKNOWN"
    }
]