[
    {
        "code": "304841",
        "direction": "SW",
        "id": "MTA_304841",
        "lat": 40.699716,
        "locationType": 0,
        "lon": -73.907354,
        "name": "PUTNAM AV/MYRTLE AV",
        "routeIds": [
            "MTA NYCT_Q58"
        ],
        "wheelchairBoarding": "UNKNOWN"
    },
    {
        "code": "304842",
        "direction": "SW",
        "id": "MTA_304842",
        "lat": 40.698366,
        "locationType": 0,
        "lon": -73.908719,
        "name": "PUTNAM AV/WYCKOFF AV",
        "routeIds": [
            "MTA NYCT_Q58"
        ],
        "wheelchairBoarding": "UNKNOWN"
    },
    {
        "code": "308488",
        "direction": "NE",
        "id": "MTA_308488",
        "lat": 40.699352,
        "locationType": 0,
        "lon": -73.911187,
        "name": "PALMETTO ST/WYCKOFF AV",
        "routeIds": [
            "MTA NYCT_Q58"
        ],
        "wheelchairBoarding": "UNKNOWN"
    },
    {
        "code": "502982",
        "direction": "W",
        "id": "MTA_502982",
        "lat": 40.738218,
        "locationType": 0,
        "lon": -73.850434,
        "name": "HORACE HARDING EXPWY/WALDRON ST",
        "routeIds": [
            "MTA NYCT_Q58",
            "MTA NYCT_Q88"
        ],
        "wheelchairBoarding": "UNKNOWN"
    },
    {
        "code": "502992",
        "direction": "NE",
        "id": "MTA_502992",
        "lat": 40.736494,
        "locationType": 0,
        "lon": -73.877838,
        "name": "GRAND AV/QUEENS BLVD",
        "routeIds": [
            "MTA NYCT_Q58",
            "MTA NYCT_Q59"
        ],
        "wheelchairBoarding": "UNKNOWN"
    },
    {
        "code": "502994",
        "direction": "NW",
        "id": "MTA_502994",
        "lat": 40.739332,
        "locationType": 0,
        "lon": -73.877793,
        "name": "BROADWAY/CORONA AV",
        "routeIds": [
            "MTA NYCT_Q58"
        ],
        "wheelchairBoarding": "UNKNOWN"
    },
    {
        "code": "503017",
        "direction": "SE",
        "id": "MTA_503017",
        "lat": 40.739049,
        "locationType": 0,
        "lon": -73.877764,
        "name": "BROADWAY/CORONA AV",
        "routeIds": [
            "MTA NYCT_Q58"
        ],
        "wheelchairBoarding": "UNKNOWN"
    },
    {
        "code": "503018",
        "direction": "S",
        "id": "MTA_503018",
        "lat": 40.737091,
        "locationType": 0,
        "lon": -73.877464,
        "name": "BROADWAY/QUEENS BLVD",
        "routeIds": [
            "MTABC_Q53+",
            "MTA NYCT_Q58"
        ],
        "wheelchairBoarding": "UNKNOWN"
    },
    {
        "code": "503240",
        "direction": "SW",
        "id": "MTA_503240",
        "lat": 40.744715,
        "locationType": 0,
        "lon": -73.836207,
        "name": "COLLEGE POINT BLVD/59 AV",
        "routeIds": [
            "MTA NYCT_Q58"
        ],
        "wheelchairBoarding": "UNKNOWN"
    },
    {
        "code": "503258",
        "direction": "NE",
        "id": "MTA_503258",
        "lat": 40.729453,
        "locationType": 0,
        "lon": -73.889932,
        "name": "GRAND AV/73 ST",
        "routeIds": [
            "MTA NYCT_Q58",
            "MTA NYCT_Q59"
        ],
        "wheelchairBoarding": "UNKNOWN"
    },
    {
        "code": "503444",
        "direction": "N",
        "id": "MTA_503444",
        "lat": 40.743221,
        "locationType": 0,
        "lon": -73.837083,
        "name": "COLLEGE POINT BLVD/HORACE HARDING EXPWY",
        "routeIds": [
            "MTA NYCT_Q58"
        ],
        "wheelchairBoarding": "UNKNOWN"
    },
    {
        "code": "503450",
        "direction": "NE",
        "id": "MTA_503450",
        "lat": 40.703052,
        "locationType": 0,
        "lon": -73.904991,
        "name": "MADISON ST/ONDERDONK AV",
        "routeIds": [
            "MTA NYCT_Q58"
        ],
        "wheelchairBoarding": "UNKNOWN"
    },
    {
        "code": "503451",
        "direction": "NE",
        "id": "MTA_503451",
        "lat": 40.70402,
        "locationType": 0,
        "lon": -73.904052,
        "name": "MADISON ST/WOODWARD AV",
        "routeIds": [
            "MTA NYCT_Q58"
        ],
        "wheelchairBoarding": "UNKNOWN"
    },
    {
        "code": "503452",
        "direction": "NE",
        "id": "MTA_503452",
        "lat": 40.704989,
        "locationType": 0,
        "lon": -73.903055,
        "name": "MADISON ST/FAIRVIEW AV",
        "routeIds": [
            "MTA NYCT_Q58"
        ],
        "wheelchairBoarding": "UNKNOWN"
    },
    {
        "code": "503453",
        "direction": "E",
        "id": "MTA_503453",
        "lat": 40.704364,
        "locationType": 0,
        "lon": -73.901923,
        "name": "FAIRVIEW AV/FOREST AV",
        "routeIds": [
            "MTA NYCT_Q58"
        ],
        "wheelchairBoarding": "UNKNOWN"
    },
    {
        "code": "503454",
        "direction": "E",
        "id": "MTA_503454",
        "lat": 40.704678,
        "locationType": 0,
        "lon": -73.900551,
        "name": "67 AV/60 ST",
        "routeIds": [
            "MTA NYCT_B13",
            "MTA NYCT_B20",
            "MTA NYCT_Q58"
        ],
        "wheelchairBoarding": "UNKNOWN"
    },
    {
        "code": "503455",
        "direction": "E",
        "id": "MTA_503455",
        "lat": 40.705683,
        "locationType": 0,
        "lon": -73.896695,
        "name": "67 AV/FRESH POND RD",
        "routeIds": [
            "MTA NYCT_B13",
            "MTA NYCT_B20",
            "MTA NYCT_Q58"
        ],
        "wheelchairBoarding": "UNKNOWN"
    },
    {
        "code": "503456",
        "direction": "NW",
        "id": "MTA_503456",
        "lat": 40.706407,
        "locationType": 0,
        "lon": -73.896832,
        "name": "FRESH POND RD/PUTNAM AV",
        "routeIds": [
            "MTA NYCT_M90",
            "MTA NYCT_Q58",
            "MTABC_QM24",
            "MTABC_QM25",
            "MTABC_QM34"
        ],
        "wheelchairBoarding": "UNKNOWN"
    },
    {
        "code": "503457",
        "direction": "NW",
        "id": "MTA_503457",
        "lat": 40.708023,
        "locationType": 0,
        "lon": -73.897694,
        "name": "FRESH POND RD/WOODBINE ST",
        "routeIds": [
            "MTA NYCT_Q58"
        ],
        "wheelchairBoarding": "UNKNOWN"
    },
    {
        "code": "503458",
        "direction": "NW",
        "id": "MTA_503458",
        "lat": 40.709326,
        "locationType": 0,
        "lon": -73.898583,
        "name": "FRESH POND RD/GATES AV",
        "routeIds": [
            "MTA NYCT_Q58"
        ],
        "wheelchairBoarding": "UNKNOWN"
    },
    {
        "code": "503459",
        "direction": "NW",
        "id": "MTA_503459",
        "lat": 40.710175,
        "locationType": 0,
        "lon": -73.899216,
        "name": "FRESH POND RD/GROVE ST",
        "routeIds": [
            "MTA NYCT_Q58"
        ],
        "wheelchairBoarding": "UNKNOWN"
    },
    {
        "code": "503461",
        "direction": "N",
        "id": "MTA_503461",
        "lat": 40.714986,
        "locationType": 0,
        "lon": -73.901197,
        "name": "FRESH POND RD/ELIOT AV",
        "routeIds": [
            "MTA NYCT_Q58"
        ],
        "wheelchairBoarding": "UNKNOWN"
    },
    {
        "code": "503462",
        "direction": "N",
        "id": "MTA_503462",
        "lat": 40.71649,
        "locationType": 0,
        "lon": -73.901595,
        "name": "FRESH POND RD/60 RD",
        "routeIds": [
            "MTABC_Q39",
            "MTA NYCT_Q58"
        ],
        "wheelchairBoarding": "UNKNOWN"
    },
    {
        "code": "503464",
        "direction": "N",
        "id": "MTA_503464",
        "lat": 40.719707,
        "locationType": 0,
        "lon": -73.902537,
        "name": "FRESH POND RD/59 AV",
        "routeIds": [
            "MTA NYCT_Q58"
        ],
        "wheelchairBoarding": "UNKNOWN"
    },
    {
        "code": "503465",
        "direction": "N",
        "id": "MTA_503465",
        "lat": 40.721506,
        "locationType": 0,
        "lon": -73.903054,
        "name": "FRESH POND RD/FLUSHING AV",
        "routeIds": [
            "MTA NYCT_Q58"
        ],
        "wheelchairBoarding": "UNKNOWN"
    },
    {
        "code": "503466",
        "direction": "NE",
        "id": "MTA_503466",
        "lat": 40.722773,
        "locationType": 0,
        "lon": -73.901124,
        "name": "FLUSHING AV/64 ST",
        "routeIds": [
            "MTA NYCT_Q58"
        ],
        "wheelchairBoarding": "UNKNOWN"
    },
    {
        "code": "503468",
        "direction": "NE",
        "id": "MTA_503468",
        "lat": 40.724268,
        "locationType": 0,
        "lon": -73.898362,
        "name": "GRAND AV/66 ST",
        "routeIds": [
            "MTA NYCT_Q58",
            "MTA NYCT_Q59"
        ],
        "wheelchairBoarding": "UNKNOWN"
    },
    {
        "code": "503469",
        "direction": "NE",
        "id": "MTA_503469",
        "lat": 40.725094,
        "locationType": 0,
        "lon": -73.896739,
        "name": "GRAND AV/QUEENS MIDTOWN EXPWY",
        "routeIds": [
            "MTA NYCT_Q58",
            "MTA NYCT_Q59"
        ],
        "wheelchairBoarding": "UNKNOWN"
    },
    {
        "code": "503470",
        "direction": "NE",
        "id": "MTA_503470",
        "lat": 40.726466,
        "locationType": 0,
        "lon": -73.894339,
        "name": "GRAND AV/69 PL",
        "routeIds": [
            "MTA NYCT_Q58",
            "MTA NYCT_Q59"
        ],
        "wheelchairBoarding": "UNKNOWN"
    },
    {
        "code": "503471",
        "direction": "NE",
        "id": "MTA_503471",
        "lat": 40.72776,
        "locationType": 0,
        "lon": -73.892151,
        "name": "GRAND AV/71 ST",
        "routeIds": [
            "MTA NYCT_Q58",
            "MTA NYCT_Q59"
        ],
        "wheelchairBoarding": "UNKNOWN"
    },
    {
        "code": "503472",
        "direction": "E",
        "id": "MTA_503472",
        "lat": 40.730283,
        "locationType": 0,
        "lon": -73.887154,
        "name": "GRAND AV/74 ST",
        "routeIds": [
            "MTA NYCT_Q58",
            "MTA NYCT_Q59"
        ],
        "wheelchairBoarding": "UNKNOWN"
    },
    {
        "code": "503473",
        "direction": "NE",
        "id": "MTA_503473",
        "lat": 40.731137,
        "locationType": 0,
        "lon": -73.885277,
        "name": "GRAND AV/79 ST",
        "routeIds": [
            "MTA NYCT_Q58",
            "MTA NYCT_Q59"
        ],
        "wheelchairBoarding": "UNKNOWN"
    },
    {
        "code": "503475",
        "direction": "NE",
        "id": "MTA_503475",
        "lat": 40.733451,
        "locationType": 0,
        "lon": -73.883824,
        "name": "GRAND AV/84 ST",
        "routeIds": [
            "MTA NYCT_Q58",
            "MTA NYCT_Q59"
        ],
        "wheelchairBoarding": "UNKNOWN"
    },
    {
        "code": "503476",
        "direction": "NE",
        "id": "MTA_503476",
        "lat": 40.735058,
        "locationType": 0,
        "lon": -73.881807,
        "name": "GRAND AV/HASPEL ST",
        "routeIds": [
            "MTA NYCT_Q58",
            "MTA NYCT_Q59"
        ],
        "wheelchairBoarding": "UNKNOWN"
    },
    {
        "code": "503477",
        "direction": "E",
        "id": "MTA_503477",
        "lat": 40.735806,
        "locationType": 0,
        "lon": -73.880197,
        "name": "GRAND AV/VAN HORN ST",
        "routeIds": [
            "MTA NYCT_Q58",
            "MTA NYCT_Q59"
        ],
        "wheelchairBoarding": "UNKNOWN"
    },
    {
        "code": "503478",
        "direction": "NE",
        "id": "MTA_503478",
        "lat": 40.737519,
        "locationType": 0,
        "lon": -73.877204,
        "name": "BROADWAY/JUSTICE AV",
        "routeIds": [
            "MTABC_Q53+",
            "MTA NYCT_Q58"
        ],
        "wheelchairBoarding": "UNKNOWN"
    },
    {
        "code": "503479",
        "direction": "NE",
        "id": "MTA_503479",
        "lat": 40.740412,
        "locationType": 0,
        "lon": -73.876413,
        "name": "CORONA AV/88 ST",
        "routeIds": [
            "MTA NYCT_Q58"
        ],
        "wheelchairBoarding": "UNKNOWN"
    },
    {
        "code": "503480",
        "direction": "NE",
        "id": "MTA_503480",
        "lat": 40.741382,
        "locationType": 0,
        "lon": -73.875087,
        "name": "CORONA AV/90 ST",
        "routeIds": [
            "MTA NYCT_Q58"
        ],
        "wheelchairBoarding": "UNKNOWN"
    },
    {
        "code": "503481",
        "direction": "E",
        "id": "MTA_503481",
        "lat": 40.742443,
        "locationType": 0,
        "lon": -73.873012,
        "name": "CORONA AV/91 PL",
        "routeIds": [
            "MTABC_Q29",
            "MTA NYCT_Q58"
        ],
        "wheelchairBoarding": "UNKNOWN"
    },
    {
        "code": "503482",
        "direction": "E",
        "id": "MTA_503482",
        "lat": 40.742305,
        "locationType": 0,
        "lon": -73.870047,
        "name": "CORONA AV/94 ST",
        "routeIds": [
            "MTA NYCT_Q58"
        ],
        "wheelchairBoarding": "UNKNOWN"
    },
    {
        "code": "503483",
        "direction": "E",
        "id": "MTA_503483",
        "lat": 40.742062,
        "locationType": 0,
        "lon": -73.867676,
        "name": "CORONA AV/JUNCTION BLVD",
        "routeIds": [
            "MTA NYCT_Q58"
        ],
        "wheelchairBoarding": "UNKNOWN"
    },
    {
        "code": "503484",
        "direction": "N",
        "id": "MTA_503484",
        "lat": 40.743382,
        "locationType": 0,
        "lon": -73.865956,
        "name": "CORONA AV/ALSTYNE AV",
        "routeIds": [
            "MTA NYCT_Q58"
        ],
        "wheelchairBoarding": "UNKNOWN"
    },
    {
        "code": "503485",
        "direction": "NE",
        "id": "MTA_503485",
        "lat": 40.744949,
        "locationType": 0,
        "lon": -73.864488,
        "name": "CORONA AV/98 PL",
        "routeIds": [
            "MTA NYCT_Q58"
        ],
        "wheelchairBoarding": "UNKNOWN"
    },
    {
        "code": "503486",
        "direction": "E",
        "id": "MTA_503486",
        "lat": 40.744224,
        "locationType": 0,
        "lon": -73.861633,
        "name": "CORONA AV/102 ST",
        "routeIds": [
            "MTA NYCT_Q58"
        ],
        "wheelchairBoarding": "UNKNOWN"
    },
    {
        "code": "503487",
        "direction": "E",
        "id": "MTA_503487",
        "lat": 40.743955,
        "locationType": 0,
        "lon": -73.858281,
        "name": "CORONA AV/104 ST",
        "routeIds": [
            "MTA NYCT_Q58"
        ],
        "wheelchairBoarding": "UNKNOWN"
    },
    {
        "code": "503488",
        "direction": "E",
        "id": "MTA_503488",
        "lat": 40.743487,
        "locationType": 0,
        "lon": -73.855716,
        "name": "CORONA AV/51 AV",
        "routeIds": [
            "MTA NYCT_Q58"
        ],
        "wheelchairBoarding": "UNKNOWN"
    },
    {
        "code": "503490",
        "direction": "SE",
        "id": "MTA_503490",
        "lat": 40.741913,
        "locationType": 0,
        "lon": -73.854262,
        "name": "108 ST/MARTENSE AV",
        "routeIds": [
            "MTABC_Q23",
            "MTA NYCT_Q58"
        ],
        "wheelchairBoarding": "UNKNOWN"
    },
    {
        "code": "503491",
        "direction": "",
        "id": "MTA_503491",
        "lat": 40.739494,
        "locationType": 0,
        "lon": -73.853028,
        "name": "108 ST/WALDRON ST",
        "routeIds": [
            "MTABC_Q23",
            "MTA NYCT_Q58"
        ],
        "wheelchairBoarding": "UNKNOWN"
    },
    {
        "code": "503492",
        "direction": "SE",
        "id": "MTA_503492",
        "lat": 40.737772,
        "locationType": 0,
        "lon": -73.85216,
        "name": "108 ST/HORACE HARDING EXPWY NORTH",
        "routeIds": [
            "MTABC_Q23",
            "MTA NYCT_Q58"
        ],
        "wheelchairBoarding": "UNKNOWN"
    },
    {
        "code": "503493",
        "direction": "NE",
        "id": "MTA_503493",
        "lat": 40.745711,
        "locationType": 0,
        "lon": -73.83517,
        "name": "COLLEGE POINT BLVD/58 RD",
        "routeIds": [
            "MTA NYCT_Q58"
        ],
        "wheelchairBoarding": "UNKNOWN"
    },
    {
        "code": "503494",
        "direction": "NE",
        "id": "MTA_503494",
        "lat": 40.74679,
        "locationType": 0,
        "lon": -73.834629,
        "name": "COLLEGE POINT BLVD/57 RD",
        "routeIds": [
            "MTA NYCT_Q58"
        ],
        "wheelchairBoarding": "UNKNOWN"
    },
    {
        "code": "503497",
        "direction": "N",
        "id": "MTA_503497",
        "lat": 40.754027,
        "locationType": 0,
        "lon": -73.832887,
        "name": "COLLEGE POINT BLVD/MAPLE AV",
        "routeIds": [
            "MTA NYCT_Q58"
        ],
        "wheelchairBoarding": "UNKNOWN"
    },
    {
        "code": "503499",
        "direction": "NE",
        "id": "MTA_503499",
        "lat": 40.755659,
        "locationType": 0,
        "lon": -73.833009,
        "name": "41 RD/COLLEGE POINT BLVD",
        "routeIds": [
            "MTA NYCT_Q58"
        ],
        "wheelchairBoarding": "UNKNOWN"
    },
    {
        "code": "503501",
        "direction": "NE",
        "id": "MTA_503501",
        "lat": 40.757391,
        "locationType": 0,
        "lon": -73.82929,
        "name": "41 RD/MAIN ST",
        "routeIds": [
            "MTA NYCT_Q58"
        ],
        "wheelchairBoarding": "UNKNOWN"
    },
    {
        "code": "503502",
        "direction": "S",
        "id": "MTA_503502",
        "lat": 40.754336,
        "locationType": 0,
        "lon": -73.833082,
        "name": "COLLEGE POINT BLVD/SANFORD AV",
        "routeIds": [
            "MTA NYCT_Q58"
        ],
        "wheelchairBoarding": "UNKNOWN"
    },
    {
        "code": "503505",
        "direction": "SW",
        "id": "MTA_503505",
        "lat": 40.746654,
        "locationType": 0,
        "lon": -73.834973,
        "name": "COLLEGE POINT BLVD/VAN WYCK EXPWY EXIT",
        "routeIds": [
            "MTA NYCT_Q58"
        ],
        "wheelchairBoarding": "UNKNOWN"
    },
    {
        "code": "503506",
        "direction": "SW",
        "id": "MTA_503506",
        "lat": 40.746005,
        "locationType": 0,
        "lon": -73.835312,
        "name": "COLLEGE POINT BLVD/58 AV",
        "routeIds": [
            "MTA NYCT_Q58"
        ],
        "wheelchairBoarding": "UNKNOWN"
    },
    {
        "code": "503511",
        "direction": "W",
        "id": "MTA_503511",
        "lat": 40.74363,
        "locationType": 0,
        "lon": -73.855877,
        "name": "CORONA AV/51 AV",
        "routeIds": [
            "MTA NYCT_Q58"
        ],
        "wheelchairBoarding": "UNKNOWN"
    },
    {
        "code": "503513",
        "direction": "W",
        "id": "MTA_503513",
        "lat": 40.744099,
        "locationType": 0,
        "lon": -73.859166,
        "name": "CORONA AV/104 ST",
        "routeIds": [
            "MTA NYCT_Q58"
        ],
        "wheelchairBoarding": "UNKNOWN"
    },
    {
        "code": "503514",
        "direction": "W",
        "id": "MTA_503514",
        "lat": 40.744346,
        "locationType": 0,
        "lon": -73.86218,
        "name": "CORONA AV/102 ST",
        "routeIds": [
            "MTA NYCT_Q58"
        ],
        "wheelchairBoarding": "UNKNOWN"
    },
    {
        "code": "503515",
        "direction": "SW",
        "id": "MTA_503515",
        "lat": 40.744821,
        "locationType": 0,
        "lon": -73.864781,
        "name": "CORONA AV/NATIONAL ST",
        "routeIds": [
            "MTA NYCT_Q58"
        ],
        "wheelchairBoarding": "UNKNOWN"
    },
    {
        "code": "503516",
        "direction": "S",
        "id": "MTA_503516",
        "lat": 40.743481,
        "locationType": 0,
        "lon": -73.866029,
        "name": "CORONA AV/46 AV",
        "routeIds": [
            "MTA NYCT_Q58"
        ],
        "wheelchairBoarding": "UNKNOWN"
    },
    {
        "code": "503517",
        "direction": "SW",
        "id": "MTA_503517",
        "lat": 40.742172,
        "locationType": 0,
        "lon": -73.867254,
        "name": "CORONA AV/JUNCTION BLVD",
        "routeIds": [
            "MTA NYCT_Q58"
        ],
        "wheelchairBoarding": "UNKNOWN"
    },
    {
        "code": "503518",
        "direction": "W",
        "id": "MTA_503518",
        "lat": 40.74238,
        "locationType": 0,
        "lon": -73.870005,
        "name": "CORONA AV/94 ST",
        "routeIds": [
            "MTA NYCT_Q58"
        ],
        "wheelchairBoarding": "UNKNOWN"
    },
    {
        "code": "503519",
        "direction": "SW",
        "id": "MTA_503519",
        "lat": 40.742375,
        "locationType": 0,
        "lon": -73.873904,
        "name": "CORONA AV/91 PL",
        "routeIds": [
            "MTA NYCT_Q58"
        ],
        "wheelchairBoarding": "UNKNOWN"
    },
    {
        "code": "503520",
        "direction": "SW",
        "id": "MTA_503520",
        "lat": 40.741585,
        "locationType": 0,
        "lon": -73.874947,
        "name": "CORONA AV/90 ST",
        "routeIds": [
            "MTA NYCT_Q58"
        ],
        "wheelchairBoarding": "UNKNOWN"
    },
    {
        "code": "503521",
        "direction": "SW",
        "id": "MTA_503521",
        "lat": 40.740585,
        "locationType": 0,
        "lon": -73.876296,
        "name": "CORONA AV/88 ST",
        "routeIds": [
            "MTA NYCT_Q58"
        ],
        "wheelchairBoarding": "UNKNOWN"
    },
    {
        "code": "503522",
        "direction": "W",
        "id": "MTA_503522",
        "lat": 40.736357,
        "locationType": 0,
        "lon": -73.878318,
        "name": "GRAND AV/QUEENS BLVD",
        "routeIds": [
            "MTA NYCT_Q58",
            "MTA NYCT_Q59"
        ],
        "wheelchairBoarding": "UNKNOWN"
    },
    {
        "code": "503523",
        "direction": "W",
        "id": "MTA_503523",
        "lat": 40.735702,
        "locationType": 0,
        "lon": -73.880889,
        "name": "GRAND AV/GOLDSMITH ST",
        "routeIds": [
            "MTA NYCT_Q58",
            "MTA NYCT_Q59"
        ],
        "wheelchairBoarding": "UNKNOWN"
    },
    {
        "code": "503524",
        "direction": "SW",
        "id": "MTA_503524",
        "lat": 40.734958,
        "locationType": 0,
        "lon": -73.882084,
        "name": "GRAND AV/HASPEL ST",
        "routeIds": [
            "MTA NYCT_Q58",
            "MTA NYCT_Q59"
        ],
        "wheelchairBoarding": "UNKNOWN"
    },
    {
        "code": "503525",
        "direction": "SW",
        "id": "MTA_503525",
        "lat": 40.733361,
        "locationType": 0,
        "lon": -73.884007,
        "name": "GRAND AV/CALAMUS AV",
        "routeIds": [
            "MTA NYCT_Q58",
            "MTA NYCT_Q59"
        ],
        "wheelchairBoarding": "UNKNOWN"
    },
    {
        "code": "503526",
        "direction": "SW",
        "id": "MTA_503526",
        "lat": 40.732141,
        "locationType": 0,
        "lon": -73.88473,
        "name": "GRAND AV/82 ST",
        "routeIds": [
            "MTA NYCT_Q58",
            "MTA NYCT_Q59"
        ],
        "wheelchairBoarding": "UNKNOWN"
    },
    {
        "code": "503527",
        "direction": "SW",
        "id": "MTA_503527",
        "lat": 40.730814,
        "locationType": 0,
        "lon": -73.885954,
        "name": "GRAND AV/79 ST",
        "routeIds": [
            "MTA NYCT_Q58",
            "MTA NYCT_Q59"
        ],
        "wheelchairBoarding": "UNKNOWN"
    },
    {
        "code": "503528",
        "direction": "W",
        "id": "MTA_503528",
        "lat": 40.7301,
        "locationType": 0,
        "lon": -73.888385,
        "name": "GRAND AV/74 ST",
        "routeIds": [
            "MTA NYCT_Q58",
            "MTA NYCT_Q59"
        ],
        "wheelchairBoarding": "UNKNOWN"
    },
    {
        "code": "503529",
        "direction": "SW",
        "id": "MTA_503529",
        "lat": 40.729251,
        "locationType": 0,
        "lon": -73.890277,
        "name": "GRAND AV/73 ST",
        "routeIds": [
            "MTA NYCT_Q58",
            "MTA NYCT_Q59"
        ],
        "wheelchairBoarding": "UNKNOWN"
    },
    {
        "code": "503530",
        "direction": "SW",
        "id": "MTA_503530",
        "lat": 40.728025,
        "locationType": 0,
        "lon": -73.891827,
        "name": "GRAND AV/72 ST",
        "routeIds": [
            "MTA NYCT_Q58",
            "MTA NYCT_Q59"
        ],
        "wheelchairBoarding": "UNKNOWN"
    },
    {
        "code": "503531",
        "direction": "SW",
        "id": "MTA_503531",
        "lat": 40.72635,
        "locationType": 0,
        "lon": -73.894688,
        "name": "GRAND AV/69 PL",
        "routeIds": [
            "MTA NYCT_Q58",
            "MTA NYCT_Q59"
        ],
        "wheelchairBoarding": "UNKNOWN"
    },
    {
        "code": "503532",
        "direction": "SW",
        "id": "MTA_503532",
        "lat": 40.725716,
        "locationType": 0,
        "lon": -73.89579,
        "name": "GRAND AV/BORDEN AV",
        "routeIds": [
            "MTA NYCT_Q58",
            "MTA NYCT_Q59"
        ],
        "wheelchairBoarding": "UNKNOWN"
    },
    {
        "code": "503533",
        "direction": "SW",
        "id": "MTA_503533",
        "lat": 40.724911,
        "locationType": 0,
        "lon": -73.897316,
        "name": "GRAND AV/QUEENS MIDTOWN EXPWY",
        "routeIds": [
            "MTA NYCT_Q58",
            "MTA NYCT_Q59"
        ],
        "wheelchairBoarding": "UNKNOWN"
    },
    {
        "code": "503535",
        "direction": "SW",
        "id": "MTA_503535",
        "lat": 40.723649,
        "locationType": 0,
        "lon": -73.8998,
        "name": "GRAND AV/REMSEN PL",
        "routeIds": [
            "MTA NYCT_Q58",
            "MTA NYCT_Q59"
        ],
        "wheelchairBoarding": "UNKNOWN"
    },
    {
        "code": "503536",
        "direction": "SW",
        "id": "MTA_503536",
        "lat": 40.722442,
        "locationType": 0,
        "lon": -73.90188,
        "name": "FLUSHING AV/64 ST",
        "routeIds": [
            "MTA NYCT_Q58"
        ],
        "wheelchairBoarding": "UNKNOWN"
    },
    {
        "code": "503537",
        "direction": "S",
        "id": "MTA_503537",
        "lat": 40.721244,
        "locationType": 0,
        "lon": -73.903057,
        "name": "FRESH POND RD/FLUSHING AV",
        "routeIds": [
            "MTA NYCT_Q58"
        ],
        "wheelchairBoarding": "UNKNOWN"
    },
    {
        "code": "503538",
        "direction": "S",
        "id": "MTA_503538",
        "lat": 40.719077,
        "locationType": 0,
        "lon": -73.902497,
        "name": "FRESH POND RD/59 AV",
        "routeIds": [
            "MTA NYCT_Q58"
        ],
        "wheelchairBoarding": "UNKNOWN"
    },
    {
        "code": "503539",
        "direction": "S",
        "id": "MTA_503539",
        "lat": 40.718083,
        "locationType": 0,
        "lon": -73.902217,
        "name": "FRESH POND RD/59 DR",
        "routeIds": [
            "MTA NYCT_Q58"
        ],
        "wheelchairBoarding": "UNKNOWN"
    },
    {
        "code": "503540",
        "direction": "S",
        "id": "MTA_503540",
        "lat": 40.716683,
        "locationType": 0,
        "lon": -73.90183,
        "name": "FRESH POND RD/60 AV",
        "routeIds": [
            "MTABC_Q39",
            "MTA NYCT_Q58"
        ],
        "wheelchairBoarding": "UNKNOWN"
    },
    {
        "code": "503541",
        "direction": "S",
        "id": "MTA_503541",
        "lat": 40.714725,
        "locationType": 0,
        "lon": -73.901281,
        "name": "FRESH POND RD/ELIOT AV",
        "routeIds": [
            "MTABC_Q39",
            "MTA NYCT_Q58"
        ],
        "wheelchairBoarding": "UNKNOWN"
    },
    {
        "code": "503542",
        "direction": "SE",
        "id": "MTA_503542",
        "lat": 40.712403,
        "locationType": 0,
        "lon": -73.900537,
        "name": "FRESH POND RD/METROPOLITAN AV",
        "routeIds": [
            "MTA NYCT_Q58",
            "MTABC_QM24",
            "MTABC_QM25",
            "MTABC_QM34"
        ],
        "wheelchairBoarding": "UNKNOWN"
    },
    {
        "code": "503543",
        "direction": "SE",
        "id": "MTA_503543",
        "lat": 40.710953,
        "locationType": 0,
        "lon": -73.899793,
        "name": "FRESH POND RD/MENAHAN ST",
        "routeIds": [
            "MTA NYCT_Q58"
        ],
        "wheelchairBoarding": "UNKNOWN"
    },
    {
        "code": "503544",
        "direction": "SE",
        "id": "MTA_503544",
        "lat": 40.709385,
        "locationType": 0,
        "lon": -73.898796,
        "name": "FRESH POND RD/LINDEN ST",
        "routeIds": [
            "MTA NYCT_Q58"
        ],
        "wheelchairBoarding": "UNKNOWN"
    },
    {
        "code": "503545",
        "direction": "SE",
        "id": "MTA_503545",
        "lat": 40.708097,
        "locationType": 0,
        "lon": -73.897851,
        "name": "FRESH POND RD/PALMETTO ST",
        "routeIds": [
            "MTA NYCT_Q58",
            "MTABC_QM24",
            "MTABC_QM25",
            "MTABC_QM34"
        ],
        "wheelchairBoarding": "UNKNOWN"
    },
    {
        "code": "503689",
        "direction": "E",
        "id": "MTA_503689",
        "lat": 40.742369,
        "locationType": 0,
        "lon": -73.87151,
        "name": "CORONA AV/93 ST",
        "routeIds": [
            "MTA NYCT_Q58"
        ],
        "wheelchairBoarding": "UNKNOWN"
    },
    {
        "code": "503862",
        "direction": "NW",
        "id": "MTA_503862",
        "lat": 40.737983,
        "locationType": 0,
        "lon": -73.852172,
        "name": "108 ST/HORACE HARDING EXPWY",
        "routeIds": [
            "MTABC_Q23",
            "MTA NYCT_Q58"
        ],
        "wheelchairBoarding": "UNKNOWN"
    },
    {
        "code": "503863",
        "direction": "",
        "id": "MTA_503863",
        "lat": 40.739108,
        "locationType": 0,
        "lon": -73.852723,
        "name": "108 ST/WALDRON ST",
        "routeIds": [
            "MTABC_Q23",
            "MTA NYCT_Q58"
        ],
        "wheelchairBoarding": "UNKNOWN"
    },
    {
        "code": "503864",
        "direction": "NW",
        "id": "MTA_503864",
        "lat": 40.740922,
        "locationType": 0,
        "lon": -73.853707,
        "name": "108 ST/VAN CLEEF ST",
        "routeIds": [
            "MTABC_Q23",
            "MTA NYCT_Q58"
        ],
        "wheelchairBoarding": "UNKNOWN"
    },
    {
        "code": "503956",
        "direction": "N",
        "id": "MTA_503956",
        "lat": 40.748293,
        "locationType": 0,
        "lon": -73.832893,
        "name": "COLLEGE POINT BLVD/BOOTH MEMORIAL AV",
        "routeIds": [
            "MTA NYCT_Q58"
        ],
        "wheelchairBoarding": "UNKNOWN"
    },
    {
        "code": "503982",
        "direction": "S",
        "id": "MTA_503982",
        "lat": 40.752011,
        "locationType": 0,
        "lon": -73.832316,
        "name": "COLLEGE POINT BLVD/FOWLER AV",
        "routeIds": [
            "MTA NYCT_Q58"
        ],
        "wheelchairBoarding": "UNKNOWN"
    },
    {
        "code": "504020",
        "direction": "N",
        "id": "MTA_504020",
        "lat": 40.752274,
        "locationType": 0,
        "lon": -73.832366,
        "name": "COLLEGE POINT BLVD/AVERY AV",
        "routeIds": [
            "MTA NYCT_Q58"
        ],
        "wheelchairBoarding": "UNKNOWN"
    },
    {
        "code": "504107",
        "direction": "W",
        "id": "MTA_504107",
        "lat": 40.706427,
        "locationType": 0,
        "lon": -73.897352,
        "name": "PUTNAM AV/FRESH POND RD",
        "routeIds": [
            "MTA NYCT_B13",
            "MTA NYCT_B20",
            "MTA NYCT_M90",
            "MTA NYCT_Q58"
        ],
        "wheelchairBoarding": "UNKNOWN"
    },
    {
        "code": "504109",
        "direction": "W",
        "id": "MTA_504109",
        "lat": 40.705216,
        "locationType": 0,
        "lon": -73.901966,
        "name": "PUTNAM AV/FOREST AV",
        "routeIds": [
            "MTA NYCT_B13",
            "MTA NYCT_B20",
            "MTA NYCT_Q58"
        ],
        "wheelchairBoarding": "UNKNOWN"
    },
    {
        "code": "504155",
        "direction": "SE",
        "id": "MTA_504155",
        "lat": 40.701455,
        "locationType": 0,
        "lon": -73.908578,
        "name": "CYPRESS AV/PALMETTO ST",
        "routeIds": [
            "MTA NYCT_Q58"
        ],
        "wheelchairBoarding": "UNKNOWN"
    },
    {
        "code": "504238",
        "direction": "SE",
        "id": "MTA_504238",
        "lat": 40.701057,
        "locationType": 0,
        "lon": -73.90486,
        "name": "SENECA AV/CORNELIA ST",
        "routeIds": [
            "MTA NYCT_B38",
            "MTA NYCT_Q58"
        ],
        "wheelchairBoarding": "UNKNOWN"
    },
    {
        "code": "504455",
        "direction": "SW",
        "id": "MTA_504455",
        "lat": 40.724156,
        "locationType": 0,
        "lon": -73.898774,
        "name": "GRAND AV/HAMILTON PL",
        "routeIds": [
            "MTA NYCT_Q58",
            "MTA NYCT_Q59"
        ],
        "wheelchairBoarding": "UNKNOWN"
    },
    {
        "code": "504474",
        "direction": "NE",
        "id": "MTA_504474",
        "lat": 40.701012,
        "locationType": 0,
        "lon": -73.907068,
        "name": "MADISON ST/CYPRESS AV",
        "routeIds": [
            "MTA NYCT_Q58"
        ],
        "wheelchairBoarding": "UNKNOWN"
    },
    {
        "code": "504475",
        "direction": "NE",
        "id": "MTA_504475",
        "lat": 40.70215,
        "locationType": 0,
        "lon": -73.905912,
        "name": "MADISON ST/SENECA AV",
        "routeIds": [
            "MTA NYCT_Q58"
        ],
        "wheelchairBoarding": "UNKNOWN"
    },
    {
        "code": "504503",
        "direction": "SE",
        "id": "MTA_504503",
        "lat": 40.727845,
        "locationType": 0,
        "lon": -73.892403,
        "name": "71 ST/GRAND AV",
        "routeIds": [
            "MTA NYCT_Q58"
        ],
        "wheelchairBoarding": "UNKNOWN"
    },
    {
        "code": "505082",
        "direction": "SW",
        "id": "MTA_505082",
        "lat": 40.703316,
        "locationType": 0,
        "lon": -73.903669,
        "name": "PUTNAM AV/WOODWARD AV",
        "routeIds": [
            "MTA NYCT_Q58"
        ],
        "wheelchairBoarding": "UNKNOWN"
    },
    {
        "code": "505083",
        "direction": "SW",
        "id": "MTA_505083",
        "lat": 40.702171,
        "locationType": 0,
        "lon": -73.904813,
        "name": "PUTNAM AV/ONDERDONK AV",
        "routeIds": [
            "MTA NYCT_Q58"
        ],
        "wheelchairBoarding": "UNKNOWN"
    },
    {
        "code": "505108",
        "direction": "N",
        "id": "MTA_505108",
        "lat": 40.718253,
        "locationType": 0,
        "lon": -73.902122,
        "name": "FRESH POND RD / 61ST ST",
        "routeIds": [
            "MTA NYCT_Q58"
        ],
        "wheelchairBoarding": "UNKNOWN"
    },
    {
        "code": "505251",
        "direction": "NW",
        "id": "MTA_505251",
        "lat": 40.71219,
        "locationType": 0,
        "lon": -73.900323,
        "name": "FRESH POND RD/BLEECKER ST",
        "routeIds": [
            "MTA NYCT_Q58",
            "MTABC_QM24",
            "MTABC_QM25",
            "MTABC_QM34"
        ],
        "wheelchairBoarding": "UNKNOWN"
    },
    {
        "code": "804059",
        "direction": "NE",
        "id": "MTA_804059",
        "lat": 40.757363,
        "locationType": 0,
        "lon": -73.829369,
        "name": "41 RD/MAIN ST",
        "routeIds": [
            "MTA NYCT_Q58"
        ],
        "wheelchairBoarding": "UNKNOWN"
    },
    {
        "code": "901025",
        "direction": "NE",
        "id": "MTA_901025",
        "lat": 40.699335,
        "locationType": 0,
        "lon": -73.91121,
        "name": "PALMETTO ST/WYCKOFF AV",
        "routeIds": [
            "MTA NYCT_Q58"
        ],
        "wheelchairBoarding": "UNKNOWN"
    }
]