[
    {
        "code": "400719",
        "direction": "NW",
        "id": "MTA_400719",
        "lat": 40.727752,
        "locationType": 0,
        "lon": -74.001516,
        "name": "WEST HOUSTON ST/SULLIVAN ST",
        "routeIds": [
            "MTA NYCT_M21"
        ],
        "wheelchairBoarding": "UNKNOWN"
    },
    {
        "code": "400720",
        "direction": "W",
        "id": "MTA_400720",
        "lat": 40.725514,
        "locationType": 0,
        "lon": -73.996935,
        "name": "WEST HOUSTON ST/BROADWAY",
        "routeIds": [
            "MTA NYCT_M21"
        ],
        "wheelchairBoarding": "UNKNOWN"
    },
    {
        "code": "400917",
        "direction": "N",
        "id": "MTA_400917",
        "lat": 40.72573,
        "locationType": 0,
        "lon": -74.00387,
        "name": "6 AV/SPRING ST",
        "routeIds": [
            "MTA NYCT_M21",
            "MTA NYCT_M55",
            "MTA NYCT_X27",
            "MTA NYCT_X28"
        ],
        "wheelchairBoarding": "UNKNOWN"
    },
    {
        "code": "401598",
        "direction": "E",
        "id": "MTA_401598",
        "lat": 40.719096,
        "locationType": 0,
        "lon": -73.976883,
        "name": "EAST HOUSTON ST/BARUCH DR",
        "routeIds": [
            "MTA NYCT_M21"
        ],
        "wheelchairBoarding": "UNKNOWN"
    },
    {
        "code": "401599",
        "direction": "E",
        "id": "MTA_401599",
        "lat": 40.718835,
        "locationType": 0,
        "lon": -73.975614,
        "name": "EAST HOUSTON ST/MANGIN ST",
        "routeIds": [
            "MTA NYCT_M14D+",
            "MTA NYCT_M21"
        ],
        "wheelchairBoarding": "UNKNOWN"
    },
    {
        "code": "401600",
        "direction": "SW",
        "id": "MTA_401600",
        "lat": 40.71675,
        "locationType": 0,
        "lon": -73.975842,
        "name": "FDR DR/555 FDR DR",
        "routeIds": [
            "MTA NYCT_M14D+",
            "MTA NYCT_M21"
        ],
        "wheelchairBoarding": "UNKNOWN"
    },
    {
        "code": "401624",
        "direction": "NE",
        "id": "MTA_401624",
        "lat": 40.71778,
        "locationType": 0,
        "lon": -73.979762,
        "name": "COLUMBIA ST/RIVINGTON ST",
        "routeIds": [
            "MTA NYCT_M14D+",
            "MTA NYCT_M21"
        ],
        "wheelchairBoarding": "UNKNOWN"
    },
    {
        "code": "401787",
        "direction": "E",
        "id": "MTA_401787",
        "lat": 40.723329,
        "locationType": 0,
        "lon": -73.990427,
        "name": "EAST HOUSTON ST/FORSYTH ST",
        "routeIds": [
            "MTA NYCT_M15",
            "MTA NYCT_M21"
        ],
        "wheelchairBoarding": "UNKNOWN"
    },
    {
        "code": "402022",
        "direction": "E",
        "id": "MTA_402022",
        "lat": 40.728226,
        "locationType": 0,
        "lon": -74.002663,
        "name": "WEST HOUSTON ST/AVENUE OF THE AMERICAS",
        "routeIds": [
            "MTA NYCT_M21"
        ],
        "wheelchairBoarding": "UNKNOWN"
    },
    {
        "code": "402023",
        "direction": "SE",
        "id": "MTA_402023",
        "lat": 40.727478,
        "locationType": 0,
        "lon": -74.001098,
        "name": "WEST HOUSTON ST/SULLIVAN ST",
        "routeIds": [
            "MTA NYCT_M21"
        ],
        "wheelchairBoarding": "UNKNOWN"
    },
    {
        "code": "402024",
        "direction": "SE",
        "id": "MTA_402024",
        "lat": 40.726524,
        "locationType": 0,
        "lon": -73.999412,
        "name": "WEST HOUSTON ST/WEST BROADWAY",
        "routeIds": [
            "MTA NYCT_M21"
        ],
        "wheelchairBoarding": "UNKNOWN"
    },
    {
        "code": "402027",
        "direction": "E",
        "id": "MTA_402027",
        "lat": 40.725023,
        "locationType": 0,
        "lon": -73.995229,
        "name": "EAST HOUSTON ST/LAFAYETTE ST",
        "routeIds": [
            "MTA NYCT_M21"
        ],
        "wheelchairBoarding": "UNKNOWN"
    },
    {
        "code": "402028",
        "direction": "E",
        "id": "MTA_402028",
        "lat": 40.724449,
        "locationType": 0,
        "lon": -73.993704,
        "name": "EAST HOUSTON ST/MOTT ST",
        "routeIds": [
            "MTA NYCT_M21"
        ],
        "wheelchairBoarding": "UNKNOWN"
    },
    {
        "code": "402029",
        "direction": "SE",
        "id": "MTA_402029",
        "lat": 40.72391,
        "locationType": 0,
        "lon": -73.992387,
        "name": "EAST HOUSTON ST/BOWERY",
        "routeIds": [
            "MTA NYCT_M21"
        ],
        "wheelchairBoarding": "UNKNOWN"
    },
    {
        "code": "402032",
        "direction": "E",
        "id": "MTA_402032",
        "lat": 40.722147,
        "locationType": 0,
        "lon": -73.986565,
        "name": "EAST HOUSTON ST/ESSEX ST",
        "routeIds": [
            "MTA NYCT_M21"
        ],
        "wheelchairBoarding": "UNKNOWN"
    },
    {
        "code": "402033",
        "direction": "E",
        "id": "MTA_402033",
        "lat": 40.721682,
        "locationType": 0,
        "lon": -73.984971,
        "name": "EAST HOUSTON ST/NORFOLK ST",
        "routeIds": [
            "MTA NYCT_M9",
            "MTA NYCT_M21"
        ],
        "wheelchairBoarding": "UNKNOWN"
    },
    {
        "code": "402034",
        "direction": "E",
        "id": "MTA_402034",
        "lat": 40.721285,
        "locationType": 0,
        "lon": -73.983737,
        "name": "EAST HOUSTON ST/CLINTON ST",
        "routeIds": [
            "MTA NYCT_M9",
            "MTA NYCT_M21"
        ],
        "wheelchairBoarding": "UNKNOWN"
    },
    {
        "code": "402067",
        "direction": "W",
        "id": "MTA_402067",
        "lat": 40.721692,
        "locationType": 0,
        "lon": -73.984158,
        "name": "EAST HOUSTON ST/AVENUE B",
        "routeIds": [
            "MTA NYCT_M9",
            "MTA NYCT_M21"
        ],
        "wheelchairBoarding": "UNKNOWN"
    },
    {
        "code": "402068",
        "direction": "W",
        "id": "MTA_402068",
        "lat": 40.722234,
        "locationType": 0,
        "lon": -73.986069,
        "name": "EAST HOUSTON ST/AVENUE A",
        "routeIds": [
            "MTA NYCT_M21"
        ],
        "wheelchairBoarding": "UNKNOWN"
    },
    {
        "code": "402071",
        "direction": "W",
        "id": "MTA_402071",
        "lat": 40.724255,
        "locationType": 0,
        "lon": -73.992852,
        "name": "EAST HOUSTON ST/BOWERY",
        "routeIds": [
            "MTA NYCT_M21"
        ],
        "wheelchairBoarding": "UNKNOWN"
    },
    {
        "code": "403303",
        "direction": "W",
        "id": "MTA_403303",
        "lat": 40.720988,
        "locationType": 0,
        "lon": -73.981738,
        "name": "EAST HOUSTON ST/AVENUE C",
        "routeIds": [
            "MTA NYCT_M9",
            "MTA NYCT_M21"
        ],
        "wheelchairBoarding": "UNKNOWN"
    },
    {
        "code": "403323",
        "direction": "NW",
        "id": "MTA_403323",
        "lat": 40.726916,
        "locationType": 0,
        "lon": -73.999765,
        "name": "WEST HOUSTON ST/LAGUARDIA PL",
        "routeIds": [
            "MTA NYCT_M21"
        ],
        "wheelchairBoarding": "UNKNOWN"
    },
    {
        "code": "403380",
        "direction": "W",
        "id": "MTA_403380",
        "lat": 40.71645,
        "locationType": 0,
        "lon": -73.980468,
        "name": "DELANCEY ST/COLUMBIA ST",
        "routeIds": [
            "MTA NYCT_M14D+",
            "MTA NYCT_M21"
        ],
        "wheelchairBoarding": "UNKNOWN"
    },
    {
        "code": "403731",
        "direction": "W",
        "id": "MTA_403731",
        "lat": 40.723879,
        "locationType": 0,
        "lon": -73.991401,
        "name": "EAST HOUSTON ST/2 AV",
        "routeIds": [
            "MTA NYCT_M21"
        ],
        "wheelchairBoarding": "UNKNOWN"
    },
    {
        "code": "403808",
        "direction": "SE",
        "id": "MTA_403808",
        "lat": 40.719626,
        "locationType": 0,
        "lon": -73.978387,
        "name": "EAST HOUSTON ST/COLUMBIA ST",
        "routeIds": [
            "MTA NYCT_M14D+",
            "MTA NYCT_M21"
        ],
        "wheelchairBoarding": "UNKNOWN"
    },
    {
        "code": "403851",
        "direction": "E",
        "id": "MTA_403851",
        "lat": 40.725735,
        "locationType": 0,
        "lon": -74.007198,
        "name": "SPRING ST/HUDSON ST",
        "routeIds": [
            "MTA NYCT_M21"
        ],
        "wheelchairBoarding": "UNKNOWN"
    },
    {
        "code": "403853",
        "direction": "W",
        "id": "MTA_403853",
        "lat": 40.728889,
        "locationType": 0,
        "lon": -74.007303,
        "name": "WEST HOUSTON ST/HUDSON ST",
        "routeIds": [
            "MTA NYCT_M21"
        ],
        "wheelchairBoarding": "UNKNOWN"
    },
    {
        "code": "403854",
        "direction": "S",
        "id": "MTA_403854",
        "lat": 40.72725,
        "locationType": 0,
        "lon": -74.009716,
        "name": "WASHINGTON ST/WEST HOUSTON ST",
        "routeIds": [
            "MTA NYCT_M21"
        ],
        "wheelchairBoarding": "UNKNOWN"
    },
    {
        "code": "404100",
        "direction": "E",
        "id": "MTA_404100",
        "lat": 40.720652,
        "locationType": 0,
        "lon": -73.981642,
        "name": "EAST HOUSTON ST/RIDGE ST",
        "routeIds": [
            "MTA NYCT_M9",
            "MTA NYCT_M21"
        ],
        "wheelchairBoarding": "UNKNOWN"
    },
    {
        "code": "404132",
        "direction": "NE",
        "id": "MTA_404132",
        "lat": 40.727023,
        "locationType": 0,
        "lon": -74.003348,
        "name": "6 AV/PRINCE ST",
        "routeIds": [
            "MTA NYCT_M21",
            "MTA NYCT_M55",
            "MTA NYCT_SIM1C",
            "MTA NYCT_SIM3C",
            "MTA NYCT_SIM4C",
            "MTA NYCT_SIM7",
            "MTA NYCT_SIM9",
            "MTA NYCT_SIM33",
            "MTA NYCT_SIM33C"
        ],
        "wheelchairBoarding": "UNKNOWN"
    },
    {
        "code": "404155",
        "direction": "W",
        "id": "MTA_404155",
        "lat": 40.724865,
        "locationType": 0,
        "lon": -73.994531,
        "name": "EAST HOUSTON ST/MOTT ST",
        "routeIds": [
            "MTA NYCT_M21"
        ],
        "wheelchairBoarding": "UNKNOWN"
    },
    {
        "code": "404895",
        "direction": "N",
        "id": "MTA_404895",
        "lat": 40.725672,
        "locationType": 0,
        "lon": -74.003915,
        "name": "6 AV/SPRING ST",
        "routeIds": [
            "MTA NYCT_M21"
        ],
        "wheelchairBoarding": "UNKNOWN"
    },
    {
        "code": "404990",
        "direction": "E",
        "id": "MTA_404990",
        "lat": 40.725908,
        "locationType": 0,
        "lon": -74.00874,
        "name": "SPRING ST/GREENWICH ST",
        "routeIds": [
            "MTA NYCT_M21",
            "MTA NYCT_SIM7",
            "MTA NYCT_SIM9"
        ],
        "wheelchairBoarding": "UNKNOWN"
    },
    {
        "code": "405172",
        "direction": "SE",
        "id": "MTA_405172",
        "lat": 40.725949,
        "locationType": 0,
        "lon": -73.998326,
        "name": "WEST HOUSTON ST/GREENE ST",
        "routeIds": [
            "MTA NYCT_M21"
        ],
        "wheelchairBoarding": "UNKNOWN"
    },
    {
        "code": "405311",
        "direction": "W",
        "id": "MTA_405311",
        "lat": 40.723164,
        "locationType": 0,
        "lon": -73.988978,
        "name": "EAST HOUSTON ST/1 AV",
        "routeIds": [
            "MTA NYCT_M21"
        ],
        "wheelchairBoarding": "UNKNOWN"
    },
    {
        "code": "405350",
        "direction": "NE",
        "id": "MTA_405350",
        "lat": 40.719624,
        "locationType": 0,
        "lon": -73.978732,
        "name": "COLUMBIA ST/HOUSTON ST",
        "routeIds": [
            "MTA NYCT_M21"
        ],
        "wheelchairBoarding": "UNKNOWN"
    },
    {
        "code": "405352",
        "direction": "NE",
        "id": "MTA_405352",
        "lat": 40.714038,
        "locationType": 0,
        "lon": -73.979844,
        "name": "LEWIS ST/GRAND ST",
        "routeIds": [
            "MTA NYCT_M21"
        ],
        "wheelchairBoarding": "UNKNOWN"
    },
    {
        "code": "405361",
        "direction": "W",
        "id": "MTA_405361",
        "lat": 40.725263,
        "locationType": 0,
        "lon": -73.995918,
        "name": "EAST HOUSTON ST/CROSBY ST",
        "routeIds": [
            "MTA NYCT_M21"
        ],
        "wheelchairBoarding": "UNKNOWN"
    },
    {
        "code": "405372",
        "direction": "W",
        "id": "MTA_405372",
        "lat": 40.713614,
        "locationType": 0,
        "lon": -73.978664,
        "name": "GRAND ST/FDR DRIVE",
        "routeIds": [
            "MTA NYCT_M21"
        ],
        "wheelchairBoarding": "UNKNOWN"
    },
    {
        "code": "405575",
        "direction": "W",
        "id": "MTA_405575",
        "lat": 40.728621,
        "locationType": 0,
        "lon": -74.005044,
        "name": "WEST HOUSTON ST/VARICK ST",
        "routeIds": [
            "MTA NYCT_M21"
        ],
        "wheelchairBoarding": "UNKNOWN"
    },
    {
        "code": "803115",
        "direction": "W",
        "id": "MTA_803115",
        "lat": 40.71335,
        "locationType": 0,
        "lon": -73.977745,
        "name": "GRAND ST/FDR DR",
        "routeIds": [
            "MTA NYCT_M21"
        ],
        "wheelchairBoarding": "UNKNOWN"
    }
]